,id_centro_vacunacion,id_ubigeo,nombre,latitud,longitud,entidad_administra,id_eess
0,119,459,I.E. Las Mercedes,-13.162139,-74.210698,DIRESA,0
1,120,444,Case Municipalidad De Huamanga,-13.149851,-74.227728,DIRESA,0
2,121,444,Ex. I.E. Guaman Poma De Ayala,-13.153746,-74.223992,DIRESA,0
3,122,444,MICRO RED LOS LICENCIADOS,-13.1432027,-74.2311973,DIRESA,0
4,123,447,Institucion Educativa Abrahan Valdelomar,-13.180507,-74.220856,DIRESA,0
5,124,444,Terminal Terrestre Los Libertadores De America,-13.134276,-74.23036,DIRESA,0
6,125,458,I.E. Señor De Los Milagros,-13.15675,-74.216241,DIRESA,0
7,126,447,I.E. Jose Abelardo Quiñones,-13.19199167,-74.22400157,DIRESA,0
8,127,466,"I.E ""nuestra Señora De Fatima""",-13.92375464,-74.33578849,DIRESA,0
9,128,470,Eespp. Jose Salvador Cavero Ovalle,-12.93687,-74.244139,DIRESA,0
10,129,482,I.E. Señor De Los Milagros,-13.01310667,-73.97698,DIRESA,0
11,130,493,I.E.P. Santa Rosa De Lima,-14.68641667,-74.11954333,MINSA,0
12,131,493,I.E.S. Nuestra Señora Del Perpetuo Socorro,-14.68641667,-74.11954333,MINSA,0
13,132,493,Instituto Superior Pedagogico De Puquio,-14.68786996,-74.12128138,MINSA,0
14,133,532,I.E Felipe Guaman Poma De Ayala,-14.00814,-73.84390667,DIRESA,0
15,134,543,"I.E ""martires De La Educacion""",-13.74943557,-74.06702115,DIRESA,0
16,135,555,"I.E P"" Micaela Bastidas""",-13.65732406,-73.95321237,DIRESA,0
17,137,826,I.E. 36005 Ascension,-12.782758,-74.981384,DIRESA,0
18,138,826,I.E. Secundaria Rosa De America,-12.780081,-74.990037,DIRESA,0
19,139,809,C. S. Santa Ana,-12.787558,-74.966672,MINSA,0
20,141,809,Conafovicer (Puyhuan Grande - San Cristobal),-12.7800755,-74.9667152,DIRESA,0
21,142,809,I.E. 37001 PEPIN,-12.7871436,-74.9727804,MINSA,0
22,143,809,I.E. 36009 Aplicación Yananaco,-12.7863273,-74.9768341,MINSA,0
23,144,809,I.E. 36011 San Cristobal,-12.781151,-74.97128,MINSA,0
24,145,809,I.E. San Juan Maria Vianey,-12.785233,-74.984754,ESSALUD,0
25,146,1859,I.E Comercio,-8.37719,-74.5373,ESSALUD,0
26,147,1859,I.E Daniel Alcides Carrion- Ex Tambo,-8.38671,-74.55492,MINSA,0
27,148,1859,I.E Nuestra Señora De Guadalupe,-8.38183,-74.52715,MINSA,0
28,149,1865,I.E San Fernando,-8.39838,-74.53433,MINSA,0
29,150,1865,I.E. Oswaldo Lima Ruiz,-8.402197,-74.548488,MINSA,0
30,151,1863,"I.E. 64103 ""diego Ferre Sosa""",-8.361984,-74.578374,MINSA,0
31,152,1863,"I.E. N°64095 ""elias Aguirre""",-8.356122,-74.59656,MINSA,0
32,153,1863,Universidad Alas Peruanas Filial Pucallpa,-8.370616,-74.56773,ESSALUD,0
33,154,1747,I.E. 0180,-7.0619828,-76.58990394,MINSA,0
34,155,1747,I.E. 0482 Ciro Saldaña,-7.0516719,-76.59433619,DIRESA,0
35,156,1753,I.E. 0274 Luisa Sanchez Ramirez,-6.61611,-76.6908,DIRESA,0
36,157,1758,I.E. 0161 Anibal Segundo Del Aguila Guevara,-6.93688,-76.77291492,MINSA,0
37,158,1764,I.E. 0256,-6.42392888,-76.508081,DIRESA,0
38,159,1764,I.E. Martín De La Riva,-6.41792137,-76.52804735,MINSA,0
39,160,1775,I.E. Carlos Wiesse,-7.18007,-76.7354,DIRESA,0
40,161,1775,I.E. Cesar Vallejo,-7.1802,76.7297,DIRESA,0
41,162,1775,I.E. La Inmaculada,-7.1795,-76.7298,DIRESA,0
42,163,1741,I.E. Ignacia Velasquez,-6.031349,-76.97469,MINSA,0
43,164,1780,I.E Alberto Leveau Garcia,-6.91213,-76.33846,MINSA,0
44,165,1793,I.E. 00614,-5.93978853,-77.30956829,MINSA,0
45,166,1794,I.E. Abilia Ocampo,-5.73870194,-77.50413284,DIRESA,0
46,167,1807,I.E. Virgen Dolorosa,-6.50656327,-76.35655573,MINSA,0
47,168,1808,I.E. Francisco Izquierdo Rios,-6.47921802,-76.3784328,MINSA,0
48,169,1799,I.E. Juan Jimenez Pimentel,-6.48931962,-76.36619468,MINSA,0
49,170,1813,I.E. N° 0412,-8.1880372,-76.51317221,DIRESA,0
50,171,1550,I.E. Primaria 35004 Santo Domingo Savio,-10.49073,-76.51577,MINSA,0
51,172,1558,Estadio Municipal De Oxapampa,-10.5722358,-75.4080484,DIRESA,0
52,173,1561,Colegio Nacional San Juan Bautidstade Iscozacin,-10.2699481,-75.1335989,DIRESA,0
53,174,1562,34226 Reverendo Padre Jose Egg,-10.07169,-75.550384,MINSA,0
54,175,1564,Pedro Ruiz Gallo,-10.7297447,-75.2646256,MINSA,0
55,176,1563,Plaza Principal,-10.2975845,-74.935861,DIRESA,0
56,177,1537,Coliseo Municipal De Chaupimarca,-10.68468,-76.2538,DIRESA,0
57,178,1538,Coliseo Municipal Huachon,-10.63461,-75.84874,DIRESA,0
58,179,1539,I.E. Mariano Melgar 35003,-10.44159,-76.18988,ESSALUD,0
59,180,1543,Colegio Alfonso Ugarte,-10.77366,-75.81155,DIRESA,0
60,181,1545,Coliseo De Paragsha,-10.67409,-76.26697,DIRESA,0
61,182,1549,Polideportivo Centenario,-10.66373,-76.25505,DIRESA,0
62,183,1586,Colegio Virgen De Las Mercedes 14408,-5.24231,-79.4496,DIRESA,0
63,184,1594,Instituto Superior Tecnologico Vicus,-5.10238933,-80.17132401,DIRESA,0
64,185,1567,Universidad Nacional De Piura,-5.17957,-80.6189,DIRESA,0
65,186,1568,I.E Juan De Mori,-5.26293,-80.6703,DIRESA,0
66,187,1566,Centro Especializado De Rehabilitacion - Cerp Piura,-5.18471,-80.634,DIRESA,0
67,188,1566,Universidad Privada De Piura - Udep,-5.17662,-80.6346,DIRESA,0
68,189,1574,"Coliseo Deportivo ""jose Aguilar Santisteban""",-4.931994,-80.344169,MINSA,0
69,190,1575,Colegio Nuestra Señora Del Pilar,-5.18469,-80.6674,DIRESA,0
70,191,1575,Institucion Educativa San Martin De Sechura,-5.1681464,-80.6659834,DIRESA,0
71,192,1617,I.E.P 14861,-4.83970612,-80.64875856,MINSA,0
72,193,1611,Centro De Salud Comundad Saludable,-4.90788525,-80.69445092,MINSA,0
73,194,1611,Centro De Salud El Obrero,-4.91040558,-80.6825309,MINSA,0
74,195,1611,Cieneguillo Sur Alto,-4.98526732,-80.66054147,MINSA,0
75,196,1611,Cieneguillo Sur Canal Mocho,-4.99856057,-80.68672245,MINSA,0
76,197,1611,Colegio Eusebio Merino Y Vinces,-4.90597694,-80.69098809,MINSA,0
77,198,1611,I.E Benjamin Zapata Reyes,-4.90437824,-80.71075795,MINSA,0
78,199,1611,I.E Nueva Esperanza -Inicial,-4.92498912,-80.66025663,MINSA,0
79,200,1611,Ie. Santa Teresa De Jesus,-4.901691,-80.678124,MINSA,0
80,201,1611,Plaza De Armas De Sullana,-4.89004558,-80.68740241,MINSA,0
81,202,1611,Polideportivo Mario Yaksetig Guzman,-4.90783913,-80.67667497,MINSA,0
82,203,1171,I.E. Mariscal Ramon Castilla,-7.71414658,-79.10748633,MINSA,0
83,204,1178,Coliseo 8 De Setiembre,-7.74614565,-79.19173167,DIRESA,0
84,205,1178,I.E. Amilcar Silva Ravines,-7.74390514,-79.18802552,MINSA,0
85,206,1178,I.E.Cebe Anexo Lache,-7.74768746,-79.18946055,ESSALUD,0
86,207,1172,Coliseo Gildemeister,-7.84423381,-79.14445632,DIRESA,0
87,208,1172,Coliseo Municipal De Chicama.,-7.83840472,-79.16212172,MINSA,0
88,209,1172,Policlinico Municipal De Chiclin,-7.73248,-79.00538,MINSA,0
89,210,1173,Coliseo Sintuco,-7.81042393,-79.1995589,MINSA,0
90,211,1173,I.E. Josefina Gutierrez Fernandez,-7.79252748,-79.21999272,MINSA,0
91,212,1173,Loza Deportiva Molinos Cajanleque,-7.79328745,-79.27398641,MINSA,0
92,213,1175,Coliseo Manco Capac,-7.73660028,-79.29681318,DIRESA,0
93,214,1604,Coliseo Municipal Distrito De Paijan,-5.08614809,-81.10968261,DIRESA,0
94,215,1175,Loza Deportiva Macabi Bajo,-7.719147,-79.35582984,MINSA,0
95,216,1176,I.E. Maria Bejarano Martel,-7.68752661,-79.37291482,DIRESA,0
96,217,1175,Losa Deportiva Macabi Alto,-7.72766053,-79.31489644,DIRESA,0
97,218,1177,I.E. Cesar Vallejo,-7.92834542,-79.20608823,MINSA,0
98,219,1177,I.E. Manuel Arevalo,-7.96155979,-79.23979816,DIRESA,0
99,220,1177,I.E. Sagrado Corazon,-7.89565895,-79.22300737,MINSA,0
100,221,1161,I.E Jose Carlos Mariategui,-8.08639785,-79.00262118,DIRESA,0
101,222,1161,I.E. 80823 El Indoamericano,-8.07489255,-79.00627661,ESSALUD,0
102,223,1162,Estadio Florencia De Mora,-8.07818843,-79.01875019,DIRESA,0
103,224,1162,Instituto Tecnologico Florencia De Mora,-8.08282274,-79.02433076,ESSALUD,0
104,2088,1334,PLAZA DE ARMAS MANAS,-10.54705811,-77.18772513,MINSA,0
105,2089,1334,PLAZA DE ARMAS DE CAHUA,-10.5973342,-77.3356712,MINSA,0
106,2090,1753,I.E. Nª 108,-6.6224605,-76.7014777,,0
107,2091,266,I.E. JOSE MARIA ARGUEDAS,-13.6893,-73.1203,DIRESA,0
108,2092,266,I.E. DIVINO MAESTRO,-13.60717,-73.16052,DIRESA,0
109,2093,266,EL TAMBO QUILLABAMBA,-13.6329103,-73.2003362,DIRESA,0
110,2094,1636,C.S. CHUCUITO,-15.89560289,-69.88619335,,0
111,2095,278,I.E. JOSE MARIA ARGUEDAS ALTAMIRANO,-13.5344,-73.2879,DIRESA,0
112,2096,268,I.E. PERLAS DEL SABER,-13.621452,-73.253156,DIRESA,0
113,2097,268,I.E. MIGUEL GRAU SEMINARIO,-13.587641,-73.340936,DIRESA,0
114,2098,262,I.E. ENRIQUE MARTINELLY TIZON,-13.8705,-73.6651,DIRESA,0
115,2099,264,I.E. DOS DE MAYO,-13.7576,-73.5268,DIRESA,0
116,2100,271,I.E. JUAN PABLO VIZCARDO Y GUZMAN,-13.773,-73.6023,DIRESA,0
117,2101,273,I.E. FRANCISCO BOLOGNESI CERVANTES,-13.958912,-73.60981,DIRESA,0
118,2102,1409,PLAZA DE ARMAS DE PACCHO,-10.9574108,-76.933022,MINSA,0
119,2103,1416,PLAZA DE ARMAS DE CAUJUL,-10.8056909,-76.9787818,MINSA,0
120,2104,1405,PLAZA DE ARMAS DE PUÑUN,-10.9181,-76.8253,MINSA,0
121,2105,1417,LOCAL COMUNAL DE COLCAPAMPA,-10.8629379,-77.1293605,MINSA,0
122,2106,1418,PLAZA DE ARMAS DE NAVAN,-10.8356,-77.0122,MINSA,0
123,2107,1415,PLAZA DE ARMAS DE ANDAJES,-10.7917,-76.91,MINSA,0
124,2108,1410,PLAZA DE ARMAS DE CHIUCHIN,-10.9483,-76.745,MINSA,0
125,2109,1403,ESTADIO DE AMBAR DE AMBAR,-10.7564,-77.2719,MINSA,0
126,2110,1408,LOCAL COMUNAL DE PICHUPAMPA,-11.099624,-76.99001,MINSA,0
127,2111,1408,LOCAL COMUNAL DE SANTA CRUZ LEONCIO PRADO,-11.059851,-76.929477,MINSA,0
128,2112,1707,C.S. ORURILLO 00003177,-14.72103491,-70.51946732,,0
129,2113,1709,P.S. UMACHIRI 00003188,-14.85145987,-70.74820218,,0
130,2114,1703,P.S. CUPI 00003162,-14.90364057,-70.86452239,,0
131,2115,1695,P.S. OCUVIRI 00003151,-15.11575848,-70.9032982,,0
132,2116,1338,PLAZA DE ARMAS DE HUAROS,-11.40674496,-76.57566583,MINSA,0
133,2117,1414,CENTRO DE SALUD OYON,-10.6681508,-76.7719278,MINSA,0
134,2118,1419,CENTRO DE SALUD CHURIN,-10.8151797,-76.8764411,MINSA,0
135,2119,1339,I.E  NUESTRA SEÑORA DEL CARMEN - LACHAQUI,-11.55291864,-76.62631398,MINSA,0
136,2120,1341,I.E SAN ANTONIO DE PADUA - TRAPICHE,-11.7214717,-76.96345961,MINSA,0
137,2121,1702,C.S. ANTAUTA 00002962,-14.29650009,-70.29342285,,0
138,2122,1337,PLAZA DE ARMAS DE HUAMANTANGA,-11.49912629,-76.74905187,MINSA,0
139,2123,1698,C.S. PUCARA 00003152,-15.0472151,-70.36696549,,0
140,2124,1727,C.S. PATAMBUCO 00003191,-14.35922547,-69.61376719,,0
141,2126,900,PLAZA PRINCIPAL DE SALCAHUASI,-12.096142,-74.7629356,DIRESA,0
142,2127,890,MUNICIPALIDAD DE ACRAQUIA,-12.4098473,-74.9029467,DIRESA,0
143,2128,1705,C.S. MACARI 00003166,-14.77234664,-70.90368116,,0
144,2129,891,AUDITORIO DE LA MUNICIPALIDAD DE AHUAYCHA,-12.40739,-74.8914215,DIRESA,0
145,2130,1705,TERMINAL TERRESTRE MACARI,-14.7695194,-70.9015726,,0
146,2131,261,I.E. SAN FRANCISCO DE ASIS,-13.5262,-73.3689,DIRESA,0
147,2132,888,CASA DEL ADULTO MAYOR PAMPAS,-12.3973753,-74.8702757,DIRESA,0
148,2133,261,I.E.P Nro 54122 LOS CHANKAS,-13.5556279,-73.3430363,DIRESA,0
149,2134,888,COLISEO DE PAMPAS,-12.3996613,-74.8668127,DIRESA,0
150,2135,1670,C.S. USICAYOS 00003149,-14.12669535,-69.9684121,,0
151,2136,892,CAMPO DEPORTIVO DEL MERCADO DE ABASTOS - COLCABAMBA,-12.4108711,-74.680932,DIRESA,0
152,2137,1340,LOCAL COMUNAL SAN BUENAVENTURA,-11.48933941,-76.66218307,MINSA,0
153,2138,905,MUNICIPALIDAD DE HUARANHUAY,-12.3565785,-74.5805059,DIRESA,0
154,2139,1341,I. E  SANTA ROSA DE YANGAS,-11.69511865,-76.8460211,MINSA,0
155,2140,899,GRAS SINTETICO DE SALCABAMBA,-12.2021534,-74.7808185,DIRESA,0
156,2141,889,COLEGIO DE ACOSTAMBO CARRETERA PRINCIPAL,-12.3564287,-75.0600359,DIRESA,0
157,2142,896,ESTADIO DE ÑAHUIMPUQUIO,-12.3292713,-75.0701934,DIRESA,0
158,2143,1336,LOCAL COMUNAL DE ARAHUAY,-11.62130151,-76.67044556,MINSA,0
159,2144,1659,PS CHIJCHIPANI - SANTIAGO DE PUPUJA AZANGARO-PUNO,-15.14096158,-70.22883563,,0
160,2145,1728,C.S. PHARA 00003194,-14.15391288,-69.66382673,,0
161,2147,810,I.E. 36034 VIÑAS,-12.61628909,-75.2167215,,0
162,2148,810,I.E. MIGUEL GRAU SEMINARIO DE ANCCAPA,-12.67240061,-75.21409367,,0
163,2149,846,IPRESS - P.S. CHUPACC,-13.1448736,-74.404765,MINSA,0
164,2150,810,PUESTO DE SALUD SAN JOSE DE ACOBAMBILLA,-12.67249818,-75.32477935,,0
165,2151,818,PUESTO DE SALUD MANTA,-12.638393,-75.1778853,,0
166,2152,810,PUESTO DE SALUD PUITUCO,-12.7140607,-75.4343041,,0
167,2153,810,PUESTO DE SALUD SAN MIGUEL DE ACOBAMBILLA,-12.707125,-75.2069344,,0
168,2154,846,CASA COMUNAL CASACANCHA - CHUPACC,-13.1448736,-74.404765,MINSA,0
169,2155,811,Municipio de Ocopa,-12.6402951,-74.9209103,,0
170,2156,846,CASA COMUNAL PUIHUAN - CHUPACC,-13.1448736,-74.404765,MINSA,0
171,2157,846,TAMBO ANTA - CHUPACC,-13.1448736,-74.404765,MINSA,0
172,2158,811,MUNICIPIO PALMADERA,-12.6401292,-74.9205118,,0
173,2159,1636,INSTITUCION EDUCATIVA PRIMARIA 70096  COCHIRAYA - CHUCUITO,-15.855,-69.82478,MINSA,0
174,2160,845,PLAZA PRINCIPAL LAMBRAS - SAN ANTONIO DE ANTAPARCO,-13.0755659,-74.4105862,MINSA,0
175,2161,811,MUNICIPIO CHILHUACCASA,-12.6401292,-74.9205118,,0
176,2162,811,CENTRO POBLADO DE HUANASPAMPA,-12.6692077,-74.8846112,,0
177,2163,840,IPRESS - P.S. CHINCHO,-13.0219085,-74.3475043,MINSA,0
178,2164,809,CENTRO POBLADO PUEBLO LIBRE,-12.8097299,-74.9362206,,0
179,2165,811,MUNICIPIO DE LAIMINA,-12.6594994,-74.8978734,,0
180,2166,1636, INSTITUCION EDUCATIVA PRIMARIA 70694 LUQUINA GRANDE - CHUCUITO,-15.7969,-69.8291,MINSA,0
181,2167,811,MUNICIPIO DE QUIMINA,-12.63201196,-74.86392398,,0
182,2168,811,CENTRO POBLADO CCATCCO - PUCUTO,-12.612658,-74.9016054,,0
183,2169,811,CENTRO POBLADO MUQUECC ALTO MUNICIPIO,-12.6334105,-74.9002123,,0
184,2170,811,CENTRO POBLADO MUQUECC BAJO MUNICIPIO,-12.6293233,-74.8891194,,0
185,2171,813,MUNICIPIO CENTRO POBLADO DE JATUNPAMPA,-12.4746583,-75.0522376,,0
186,2172,811,CENTRO POBLADO PUCACCOCHA,-12.6888678,-74.9124265,,0
187,2173,811,CENTRO DE SALUD AÑANCUSI,-12.5868782,-74.7150972,,0
188,2174,811,PUESTO DE SALUD PALLALLA,-12.5652919,-74.7389982,,0
189,2175,872,PLAZA DE ARMAS HUAYTARA,-13.59973926,-75.35293093,DIRESA,0
190,2176,811,PUESTO DE SALUD AÑAYLLA,-12.6138024,-74.7099618,,0
191,2177,811,PUESTO DE SALUD ALHUARA,-12.6121567,-74.6888144,,0
192,2178,811,PUESTO DE SALUD UNION AMBO,-12.4933663,-74.7713662,,0
193,2179,811,PUESTO DE SALUD ALIANZA ANDINA,-12.6420558,-74.8631402,,0
194,2180,811,PUESTO DE SALUD CHUPACA,-12.5222001,-74.8301973,,0
195,2181,811,PUESTO DE SALUD CCOSNIPUQUIO,-12.6247436,-74.7057478,,0
196,2182,872,LOZA DEPORTIVA DEL ANEXO DE CHOCORVO,-13.6042392,-75.3440587,DIRESA,0
197,2183,875,PLAZA DE ARMAS DE HUAYACUNDO ARMA,-13.5339963,-75.3146286,DIRESA,0
198,2184,811,INSTITUTO TECNOLOGICO AGROPECUARIO DE ACORIA,-12.6459051,-74.8578668,,0
199,2185,881,TAMBO DE CUSICANCHA,-13.4612818,-75.2798207,DIRESA,0
200,2186,811,CENTRO DE SALUD ACORIA,-12.6423221,-74.8640303,,0
201,2187,811,PUESTO DE SALUD DE SILVA,-12.6888273,-74.8327094,,0
202,2188,881,PAMPAPUQUIO,-13.4780234,-75.2745756,DIRESA,0
203,2189,811,I.E JOSE SANTOS CHOCANO DE LIRIO,-12.5786425,-74.885371,,0
204,2190,811,PLAZA PRINCIPAL DE ATAYLLAMA,-12.5789147,-74.8659206,,0
205,2191,811,CASA COMUNAL NARANJAL,-12.5798123,-74.8150274,,0
206,2192,811,PLAZA PRINCIPAL HUIÑACC CENTRO,-12.6868193,-74.8466924,DIRESA,0
207,2193,1721,DISTRITO CABANILLAS,-15.6396991,-70.3486786,MINSA,0
208,2194,1720,DISTRITO CABANA,-15.6494849,-70.3215901,MINSA,0
209,2195,1693,DISTRITO CALAPUJA,-15.3137962,-70.2189972,MINSA,0
210,2196,1655,DISTRITO SAMAN,-15.2956033,-70.0209583,MINSA,0
211,2197,884,PLAZA DE ARMAS SANTIAGO DE CHOCORVOS,-13.8255362,-75.257617,DIRESA,0
212,2198,840,CASA COMUNAL VILLOCC - CHINCHO,-13.0219085,-74.3475043,MINSA,0
213,3394,1559,TERMINAL TERRESTRE DISTRITO CHONTABAMBA,-10.6025304,-75.4375384,MINSA,0
214,3395,108,PLAZA DEL CENTRO POBLADO DE HUAYA,-9.165687506,-77.3821557,MINSA,0
215,3396,1661,IEP 72600 GRANDIOSO TUPAC AMARU,-14.0680512,-70.4346922,,0
216,3397,117, PUESTO SATELITE ANDACHUPA- HUALLANCA,-9.786623349,-76.91778828,MINSA,0
217,3399,117,LOCAL COMUNAL UTUTUPAMPA - HUALLANCA,-9.740191779,-76.95684956,MINSA,0
218,3400,215,COAR - CATAC,-9.808968996,-77.42579368,,0
219,3402,304,EX ESSALUD -  HOSPITAL TAMBOBAMBA,-13.94624974,-72.17503226,,0
220,3403,108,PLAZA DEL CENTRO POBLADO DE RAYAN,-9.153263051,-77.35166703,MINSA,0
221,3404,108,PLAZA DEL CENTRO POBLADO DE MACUASH,-9.148685197,-77.35431572,,0
222,3405,108,PLAZA DEL CENTRO POBLADO DE SOCOS,-9.136358792,-77.36204182,MINSA,0
223,3406,108,PLAZA DEL CENTRO POBLADO DE HUALLIN,-9.180509827,-77.42324849,MINSA,0
224,3407,108,PLAZA DEL CENTRO POBLADO DE TINCO,-9.167649641,-77.3665828,MINSA,0
225,3408,108,PLAZA DEL CENTRO POBLADO DE VISCAS,-9.150182688,-77.3874705,MINSA,0
226,3409,108,PLAZA DEL CENTRO POBLADO DE COCHAS,-9.174671266,-77.36436059,MINSA,0
227,3410,108,PLAZA DEL CENTRO POBLADO DE GOYLLARHUANCA,-9.167405368,-77.36200024,MINSA,0
228,3411,216,TEATRO MUNICIPAL DE COTAPARACO,-9.993340309,-77.58798247,,0
229,3412,167,TEATRO MUNICIPAL DE COCHAPETI,-9.987416639,-77.64629772,,0
230,3413,222,AUDITORIUM DE LA MUNICIPALIDAD DE TAPACOCHA,-10.00989422,-77.56950473,,0
231,3414,215,PUESTO SALUD PAMPA DE LAMPAS,-10.05848267,-77.27385949,,0
232,3415,1562,CASA CULTURAL,-10.07194966,-75.55157787,MINSA,0
233,3417,1281,Punto de Vacunación 1,-12.0593277,-77.041171,,0
234,3418,117,INSTITUCION EDUCATIVA88367  PALMADERA  - HUALLANCA,-9.853033945,-77.03269057,MINSA,0
235,3419,123,IE Nº 86242 AGUSTIN DEXTRE CORDOBA - CORPANQUI,-10.28545433,-77.19893484,DIRESA,0
236,3420,697,COLEGIO GARCILASO,-13.52083037,-71.96659554,MINSA,0
237,3427,1511,SALON COMUNAL - BOCA MANU,-12.2646349,-70.9103902,,0
238,3428,1511,SALON COMUNAL COMUNIDAD NATIVA DIAMANTE - DIAMANTE,-11.7375914,-71.6673352,,0
239,3429,1512,SALON COMUNAL ISIRIWE - BOCA COLORADO,-12.5056706,-70.600539,,0
240,3430,1512,COMPLEJO DEPORTIVO DELTA 1 - BOCA COLORADO,-12.790512,-70.521002,,0
241,3431,1773,I.E. 0353,-6.4849,-76.5859,MINSA,0
242,3432,1751,I.E. 0176 Ricardo Palma - Comunidad Nativa Huingoyacu,-6.8633875,-76.660924,,0
243,3433,130,PUESTO DE SALUD COPA GRANDE,-9.289868142,-77.56151205,MINSA,0
244,3434,683,PLAZA CENTRAL - CPP CHAQUIL,-6.6356697,-78.8552257,MINSA,0
245,3435,682,MERCADO DE ABASTOS - CHANCAY BAÑOS,-6.5768768,-78.8666093,MINSA,0
246,3436,128,PUESTO DE SALUD PURHUAY,-9.329499901,-77.62099386,MINSA,0
247,3437,681,SALON DE USOS MULTIPLES - CATACHE,-6.6750933,-79.0327692,DIRESA,0
248,3438,130,MUNICIPALIDAD DE RECUAYHUANCA,-9.340013514,-77.55448924,MINSA,0
249,3439,1192,I.E. JUAN ALVARADO - OTUZCO,-7.9022511,-78.5662345,MINSA,0
250,3440,1192,I.E. SIMON BOLIVAR  - OTUZCO,-7.902401,-78.565608,MINSA,0
251,3441,1192,I.EP. JOSE MARIA ALVAREZ  - OTUZCO,-7.905015343,-78.56051215,MINSA,0
252,3442,1813,I.E.P.S.M.  N° 0413,-8.197104813,-76.57353884,,0
253,3443,1207,IE. SANTO TORIBIO - TAYABAMBA,-8.273645427,-77.29927051,MINSA,0
254,3444,1207,IE. ANGELO PAGANI- TAYABAMBA,-8.276619078,-77.30083499,MINSA,0
255,3445,1207,IE. INSTITUTO SUPERIO PEDAGOCICO TAYABAMBA,-8.27986496,-77.29748298,MINSA,0
256,3446,94,IE SAN FRANCISCO DE ASIS,-9.5628488,-77.8934352,MINSA,0
257,3447,1210,PLAZA ARMAS - COCHACARA,-8.469614365,-77.23479322,MINSA,0
258,3448,1568,IGLESIA PRESENCIA DE DIOS,-5.2330639,-80.638623,MINSA,0
259,3449,142,IE AGROPECUARIO YAUTAN,-9.5101851,-77.9951381,MINSA,0
260,3450,1210,COLISEO MUNICIPAL - HUANCASPATA,-8.457487,-77.2982936,MINSA,0
261,3451,88,PLAZA DE ARMAS - RAYPA,-9.7452062,-77.881388,,0
262,3452,1210,LOSA DEPORTIVA GREGORIO LECCA - HUANCASPATA,-8.457487,-77.2982936,MINSA,0
263,3453,87,MUNICIPALIDAD DE COLCABAMBA,-9.59481,-77.80838,MINSA,0
264,3454,737,INPE SICUANI,-14.2740192,-71.2342043,,0
265,3455,86,IE 86061,-9.4950639,-77.8597701,MINSA,0
266,3456,1216,PLAZA ARMAS DE PARCOY,-7.969514,-77.426338,MINSA,0
267,3457,1215,PLAZA DE ARMAS PATAZ,-7.711503713,-77.58484698,MINSA,0
268,3458,166,COLISEO MARIANO LOO GRANDA,-10.0713921,-78.1554634,MINSA,0
269,3459,1218,ESTADIO DEL CLUB BOLIVAR - TAURIJA,-8.306745746,-77.42364015,MINSA,0
270,3460,166,IE 86056 DANIEL ALCIDES CARRION,-10.0713921,-78.1554634,,0
271,3461,1219,LOSA DEPORTIVA - URPAY,-8.3474627,-77.3918504,MINSA,0
272,3462,1217,LOSA DEPORTIVA SANTIAGO DE CHALLAS,-8.4390758,-77.3205791,MINSA,0
273,3463,166,IE SANTA ROSA,-10.0535963,-78.1560087,,0
274,3464,168,IE 88109 ALFONSO UGARTE,-9.9501494,-78.221974,,0
275,3465,1212,PLAZA DE ARMAS - HUAYO,-8.041897458,-77.52089607,MINSA,0
276,3466,1216,ESTADIO GRAN PAJATEN - PIAS,-7.8718216,-77.5466258,MINSA,0
277,3467,687,SALON DE USOS MULTIPLES - SEXI,-6.5604509,-79.0523061,MINSA,0
278,3468,170,IE 86142 SABIO SANTIAGO ANTUNEZ DE MAYOLO,-9.9453293,-77.7472042,,0
279,3469,1209,ANFITEATRO MUNICIPAL CHILIA,-8.1243632,-77.5146453,MINSA,0
280,3470,1209,PLAZA DE ARMAS HUAYAUCITO - CHILIA,-8.1371599,-77.5390127,MINSA,0
281,3471,88,IE 86054 JAVIER ROMERO MAGUIÑA,-9.7229175,-77.8180068,,0
282,3472,1208,COLISEO MUNICIPAL BULDIBUYO -,-8.127423827,-77.39502017,MINSA,0
283,3473,227,P.S. MACATE,-8.759744838,-78.05966767,,0
284,3474,232,PLAZA MAYOR DE NUEVO CHIMBOTE,-9.1220885,-78.5311232,MINSA,0
285,3475,1213,PLAZA DE ARMAS ONGON,-8.207604289,-76.98350587,MINSA,0
286,3476,224,P.S. LUPAHUARY,-8.867369777,-78.28307251,,0
287,3477,1213,CAMPO DEPORTIVO UCTUBAMBA - ONGON,-8.1346042,-77.1288994,MINSA,0
288,3478,227,P.S. SANTA ANA SIERRA,-8.886853131,-78.21468834,,0
289,3479,224,P.S. SANTA ROSA PAQUIRCA,-8.982319555,-78.51836282,,0
290,3480,1207,CASA COMUNAL LA VICTORIA - TAYABAMBA,-8.2768959,-77.2983734,MINSA,0
291,3481,681,COMPLEJO DEPORTIVO UDIMA,-6.8114224,-79.086585,MINSA,0
292,3482,681,LOCAL COMUNAL MONTE SECO,-6.8579166,-79.1130321,MINSA,0
293,3483,1252,LOCAL COMUNAL MACUACO,-6.8021249,-79.2376852,MINSA,0
294,3484,1192,"POLIDEPORTIVO""RAMON CASTILLA "" - OTUZCO",-7.9058992,-78.5604816,MINSA,0
295,3485,686,SALON DE USOS MULTIPLES SAUCEPAMPA,-6.6906603,-78.9166691,MINSA,0
296,3486,1200,"PLAZA DE ARMAS  ""SINSICAP""",-7.8516105,-78.7545309,MINSA,0
297,3487,686,CASA COMUNAL ROMERO CIRCA,-6.692151657,-78.89008829,MINSA,0
298,3488,1196,"I.E. ""VICTOR ARGOMEDO"" - LA CUESTA",-7.9185697,-78.7054043,MINSA,0
299,3489,1198,"I.E. ""JESUS NAZARENO"" - PARANDAY",-7.8850869,-78.70971,MINSA,0
300,3490,685,SALON DE USOS MULTIPLES  PULAN,-6.7388058,-78.920449,MINSA,0
301,3491,232,IE REPUBLICA ARGENTINA,-9.1257998,-78.5269911,MINSA,0
302,3492,514,IIEE 9 DE DICIEMBRE,-15.0118678,-73.7790879,,0
303,3493,489,I.E. SAN MARTIN,-12.94662286,-74.01929382,,0
304,3494,514,IIEE NUESTRA SEÑORA DE LAS NIEVES,-15.0138008,-73.777381,,0
305,3495,143,IE 88127 SAN PEDRO - CORONGO,-8.567999031,-77.89686188,MINSA,0
306,3496,456,I.E.P. GUAYACONDO,-13.16184591,-74.17075709,,0
307,3497,451,I.E. NUESTRA SEÑORA DEL CARMEN - LLAMAHUILCA,-13.05408313,-74.16861073,,0
308,3498,445,I.E.P. GENERAL TRINIDAD MORAN,-13.21802758,-74.04170467,,0
309,3499,449,I.E.P. MAYABAMBA,-13.32373557,-73.88922146,,0
310,3500,456,I.E. 38078 - MUYURINA,-13.11366799,-74.19325025,,0
311,3501,450,I.E. MARISCAL ANTONIO JOSE DE SUCRE,-13.0577772,-74.21651073,,0
312,3502,444,I.E.P SIMPAPATA,-13.07681122,-74.26208338,,0
313,3503,456,GUSTAVO ESCUDERO OTERO,-13.21207922,-74.10846839,,0
314,3504,457,SAN FRANCISCO DE ASIS,-13.24211463,-74.3546,,0
315,3505,449,I.E..P 38063 DE CCERAOCRO,-13.34713559,-73.90058927,,0
316,3506,144,LOCAL MUNICIPAL DE ACO,-8.522984578,-77.87728854,MINSA,0
317,3507,448,I.E. 38839 - LLACHOCCMAYO,-13.4019565,-74.22113219,,0
318,3508,448,I.E. . BASILIO AUQUI - MANALLASACC,-13.46947741,-74.14671073,,0
319,3509,457,I.E.SECUNADARIA  CHACAPAMPA,-13.3425223,-74.53832167,,0
320,4668,139,HA CASMA,-9.4739706,-78.3049805,,0
321,4669,1516,CENTRO POBLADO SANTA MARIA - LAS PIEDRAS,-11.8126843,-69.0447046,,0
322,4670,1302,COLEGIO MÉDICO DEL PERÚ,-12.133727,-77.0288319,,0
323,4671,1320,COLEGIO DE ODONTOLÓGOS DEL PERÚ,-12.0853223,-76.9727035,,0
324,4672,1293,COLEGIO DE NUTRICIONISTAS DEL PERÚ,-12.0754807,-77.0467961,,0
325,4673,1295,INSTITUTO DE MEDICINA LEGAL Y CIENCIAS FORENSES DICLIFOR,-12.0612354,-77.0341903,,0
326,4674,1320,COLEGIO QUÍMICO FARMACÉUTICO DEL PERÚ,-12.1430158,-76.9883826,,0
327,4675,1300,COLEGIO DE OBSTETRAS DEL PERÚ,-12.09029,-77.0696135,,0
328,4676,1293,COLEGIO DE PSICÓLOGOS DEL PERÚ,-12.0720719,-77.043561,,0
329,4677,1295,COLEGIO DE BIÓLOGOS DEL PERÚ,-12.0846055,-77.0116087,,0
330,4680,1295,COLEGIO DE TECNÓLOGOS MEDICOS DEL PERÚ,-12.0612354,-77.0341903,,0
331,4687,1676,LAMPA GRANDE,-16.36910022,-69.38510385,,0
332,4688,1671,CHALLACOLLO,-16.51818595,-69.61524027,,0
333,4692,1764,PLAZA DE ARMAS WAYKU,-6.4237383,-76.522815,,0
334,4695,636,I.E. SAN JOSE OBRERO 16014,-5.856119,-78.9111433,,0
335,4696,165,C.S. UCO,-9.1867823,-76.9302446,,0
336,4697,1317,COLEGIO DE ASISTENTE SOCIAL,-12.0416404,-76.9535633,,0
337,4706,636,17001 EX - 51,-5.7068498,-78.8110694,,0
338,4708,263,RSAb - C. S. Huancarama,-13.64199848,-73.09039982,,0
339,4709,258,RSAb - C. S. Cachora,-13.50999377,-72.81275199,,0
340,4714,1212,Anfiteatro de Huayo - Huayo,-8.000082328,-77.60292231,,0
341,4715,1207,Local comunal de Ucrumarca - Tayabamba,-8.2433535,-77.3577748,,0
342,4721,1753,I.E. 0009 BILINGUE KAWANA SISA,-6.6548303,-76.7203496,,0
343,4722,1214,C.E. Sagrada Familia - Vaqueria de andas,-8.0100454,-77.4979275,,0
344,4723,1767,LOCAL COMUNAL ALIANZA,-6.1145014,-76.2759028,,0
345,4724,1751,I.E. 0174 ROSENDO TAPULLIMA SALAS - Comunidad Nativa Fausa Sapina,-6.806484623,-76.6736657,,0
346,4735,428,COMPLEJO DEPORTIVO PLAZA SAN FRANCISCO,-17.0956117,-71.7710664,,0
347,4736,1779,C.P. VIVERES,-7.15818065,-76.66490061,,0
348,4737,1779,C.P. SAN JOSÉ DE JUÑAO,-7.211373561,-76.72014046,,0
349,4738,1779,C.P. LANCHARARCA,-7.210161156,-76.69650157,,0
350,4739,1779,C.P. MARICHE II,-7.1587939,-76.6770913,,0
351,4740,336,I.E. SANTA ROSA DE LIMA-CIRCA,-16.3851826,-71.5185981,,0
352,4741,1506,LOZA DEPORTIVA PUEBLO VIEJO - PUERTO MALDONADO,-12.5960917,-69.1734986,,0
353,4742,1506,CENTRO COMUNAL LA UNION - PUERTO MALDONADO,-12.6001997,-69.1782795,,0
354,4743,1517,PLAZA DE ARMAS DE MOQUEGUA,-17.19380542,-70.93453552,,0
355,4744,1778,I.E. 0410 SANTO CRISTO DE BAGAZÁN,-7.2267979,-76.8553594,,0
356,4745,1774,SAN FERNANDO DE RUMICILLO,-6.573575,-76.589355,,0
357,4746,1774,CC.NN ALTO VISTA ALEGRE DE SHITARIYACU,-6.592,-76.5875,,0
358,4747,1779,MI TAMBO COSTA RICA,-7.3025433,-76.6532419,,0
359,4748,1750,I.E. JOSE A. RENGIFO GONZALES,-7.411925951,-76.5647587,,0
360,4749,1779,I.E. N°0560 ISABEL FLORES DE OLIVA,-7.484853915,-76.55761459,,0
361,4751,1779,C.P. MARICHE I,-7.1561602,-76.6739278,,0
362,4752,1779,C.P. PUERTO RIOS,-7.2195266,-76.7278618,,0
363,4753,1779,C.P. ANGASHACO,-7.2008459,-76.6922959,,0
364,4754,1775,C.P.M. LA MERCED,-7.1756197,-76.7272274,,0
365,4755,1775,AA.HH. VENECIA,-7.1687438,-76.7218226,,0
366,4756,1775,JUANJUI CENTRO,-7.1802736,-76.7265011,,0
367,4757,1770,maceda,-6.4793,-76.5028,,0
368,4758,1774,NUEVO MUNDO - ZAPATERO,-6.531702,-76.545235,,0
369,4759,1774,PROGRESO - ZAPATERO,-6.626,-76.5091,,0
370,4760,1768,DISTRITO CUÑUMBUQUI,-6.51083,-76.4811,,0
371,4761,1646,IE SAN CARLOS - COM PUNTA JALLAPISI - AZANGARO - P'UNO,-14.81865475,-70.24557251,,0
372,4763,1766,I.E 00591 SANTIAGO DE BORJA -BARRANQUITA,-6.2202,-76.0004,,0
373,4764,1758,CC AGUA AZUL,-6.907834165,-76.76597684,,0
374,4765,1766,SANGAMAYOC-BARRANQUITA,-6.2624,-76.1426,,0
375,4766,1566,Colegio José Joaquín Inclán,-5.1991306,-80.6373742,,0
376,4767,1766,UCHPAYACU GRAU-BARRANQUITA,-6.2928,-76.0133,,0
377,4768,1766,SANTA ELENA - BARRANQUITA,-6.15267,-75.92031,,0
378,4769,1766,NUEVO ICA-BARRANQUITA,-6.132,-75.9427,,0
379,4770,1770,CC.PP. CHIRAPA-RUMISAPA,-6.4104,-76.4627,,0
380,4771,432,COMPLEJO DEPORTIVO COLON,-17.1700711,-71.7967661,,0
381,4773,1773,I.E 0217 - HUNGURAHUIPAMPA-TABALOSOS,-6.544036,-76.59267,,0
382,4774,679,CENTRO DE MODULO COVID - SANTA CRUZ,-6.6260195,-78.9443421,,0
383,4775,1661,LA Y,-14.0690797,-70.4278955,,0
384,4776,1708,PLAZA DE ARMAS SANTA ROSA,-14.6074626,-70.78751606,,0
385,4777,1341,I.E. 20293,-11.6953863,-76.8464312,,0
386,4778,1656,COMUNIDA TUMUYO - SAN ANTON,-14.47266184,-70.25395342,,0
387,4779,1690,P.S. SOLITARIO,-15.11995561,-69.55440649,,0
388,4780,1690,P.S. TIQUI TIQUI,-15.18899212,-69.58754786,,0
389,4781,1506,I.E. CARLOS FERMIN FITZCARRALD - TAMBOPATA,-12.5920081,-69.1897588,,0
390,4782,1335,CENTRO DE SALUD CANTA,-11.4700307,-76.6234052,,0
391,4783,581,andamachay - cortegana,-6.514115681,-78.326176,,0
392,4784,581,canden-cortegana,-6.466060044,-78.30744345,,0
393,4785,581,musaden-cortegana,-6.398616687,-78.28381855,,0
394,4786,1507,P.S PUNQUIRI CHICO,-13.089345,-70.391307,,0
395,4787,993,Institución Educativa NUESTRA SEÑORA DE LAS MERCEDES de nivel Secundaria,-14.06501654,-75.73545577,,0
396,4788,1508,CARE VIRGEN DE GUADALUPE-EL TRIUNFO,-12.5857848,-69.1685886,,0
397,4789,1753,I.E. 0660 - JORGE RUIZ VEINTEMILLA,-6.6136136,-76.6954346,,0
398,4792,1341,CENTRO DE SALUD YANGAS,-11.6958204,-76.8485482,,0
399,4794,1176,Brigada movil sector macabi alto -  Macabi Alto,-7.7166721,-79.3711947,,0
400,4796,152,Loza deportiva Cajay,-9.244265,-77.1255055,,0
401,4802,1506,CENTRO POBLADO LA VICTORIA,-12.3403988,-69.281044,,0
402,4803,1506,COMUNIDAD NATIVA TIPISHCA,-12.3403988,-69.281044,,0
403,4804,1509,I.E. JAVIER HERAUD - LABERINTO,-12.716485,-69.5871811,,0
404,4805,1849,Colegio 035 Horacio Zevallos Gamez _ Cabuyal – Pampas De Hospital,-3.7167749,-80.4408315,,0
405,4806,1566,E.S.I3 NUEVA ESPERANZA,-5.1782884,-80.6548882,,0
406,4807,1176,Brigada movil La Corlib - Macabi alto,-7.7166721,-79.3711947,,0
407,4808,1176,Brigada movil Nuevo Paraiso - Macabi alto,-7.7166721,-79.3711947,,0
408,4809,1176,Brigada El Paraiso - Macabi alto,-7.7166721,-79.3711947,,0
409,4810,1176,BRIGADA MOVIL SECTOR RAZURI - RAZURI,-7.7166721,-79.3711947,,0
410,4811,1310,PENTAGONITO,-12.1007421,-76.9868077,,0
411,4813,1310,POLICLINICO NAVAL,-12.0963924,-76.9932053,,0
412,4814,1301,SALUDPOL,-12.0695399,-77.0543513,,0
413,4816,1566,C.S SAN PEDRO,-5.2004186,-80.6400189,,0
414,4817,125,YANAMARCA,-9.288490892,-77.64133367,,0
415,4818,125,BARRIO LA PAZ,-9.282819118,-77.6464586,,0
416,4819,125,BARRIO EL TRIUNFO,-9.279864961,-77.64621184,,0
417,4820,125,BARRIO SAN MARTIN,-9.281206997,-77.64391468,,0
418,4821,229,I.E. MARCOS EVARISTO VILLACRE,-9.175261986,-78.35750433,,0
419,4822,125,CAJAMARQUILLA,-9.278284591,-77.64357136,,0
420,4823,1678,P.S. ANCOAMAYA,-16.1499206,-69.58332732,,0
421,4824,1678,P.S. MULLACONTIHUECO,-16.17575067,-69.54061314,,0
422,4825,1678,P.S.CHUCARAYA,-16.1411001,-69.60147514,,0
423,4826,1678,P.S. CHILACOLLO,-16.11538262,-69.59879025,,0
424,4827,1678,P.C.OCOÑA,-16.08329331,-69.58333536,,0
425,4828,1516,LOCAL COMUNAL LA NOVIA,-11.7503805,-69.3831079,,0
426,4829,1508,CENTRO DE ACOGIDA RESIDENCIAL VIRGEN PEREGRINA-INABIF,-12.5747937,-69.1758142,,0
427,4835,1691,P.S. CHAÑOCAHUA,-15.3636353,-70.3667592,,0
428,4836,1506,COMPLEJO DEPORTIVO LA CHACRITA,-12.603759,-69.1994438,,0
429,4837,1791,I.E. N° 00649-bilingue,-5.761320595,-77.42869,,0
430,4839,1512,SALON COMUNAL BOCA AMIGO,-12.603123,-70.0880743,,0
431,4840,1508,P.S PLANCHON,-12.2800069,-69.1520727,,0
432,4841,1575,CENTRO DE SALUD SAN SEBASTIAN,-5.1797493,-80.6818435,,0
433,4842,1569,IE FEDERICO VILLARREAL,-5.3246336,-80.6657744,,0
434,4843,563,SAMU DIRESA CAJAMARCA,-7.150998541,-78.50673728,,0
435,4844,1828,IE ALFONSO UGARTE,-18.2862724,-70.4360652,,0
436,4845,1778,LOCAL COMUNAL DE SAN JUAN DEL CAÑO,-7.2604638,-76.7902269,,0
437,4846,1778,LOCAL COMUNAL SAN RAMON,-7.2604638,-76.7902269,,0
438,2316,662,Coliseo Multiusos San Miguel,-7.0007634,-78.8492716,DIRESA,0
439,2317,673,"Institución Educativa ""Alberto Turpaud"" - Tongod",-6.7510485,-78.8272322,DIRESA,0
440,2318,667,"Institución Educativa ""Miguel Grau"" - La Florida",-6.8696558,-79.1220056,DIRESA,0
441,2319,1649,ESTABLECIMIENTO DE SALUD PROGRESO - AZANGARO - PUNO,-14.69252197,-70.35853805,,0
442,2320,663,Auditorio Municipal de Bolivar,-6.9768562,-79.1780401,DIRESA,0
443,2321,1656,PLAZA DE ARMAS-SAN ANTON,-14.584364,-70.319337,,0
444,2322,671,"Institución Educativa ""San Gregorio""",-7.0572153,-79.0973641,DIRESA,0
445,2323,1784,I.E. CESAR RUIZ REATEGUI,-6.849428,-76.340337,,0
446,2324,1724,PLAZOLETA MUNICIPAL SANDIA,-14.3221046,-69.4660729,,0
447,2325,1730,COLISEO CERRADO SAN JUAN DEL ORO,-14.2229662,-69.1545414,,0
448,2326,1731,INSTITUCION EDUCATIVA -YANAHUAYA,-14.2570044,-69.1718432,,0
449,2327,1725,TAMBO URAL AYLLO -CUYOCUYO,-14.449076,-69.5337086,,0
450,2328,1733,CENTRO DE SALUD -PUTINA PUNCO,-14.1141974,-69.0470067,,0
451,2329,1732,COLISEO ABIERTO - MASIAPO,-14.0916574,-69.2449499,,0
452,2330,1729,PUESTO DE SALUD -QUIACA,-14.4238943,-69.3439856,,0
453,2331,654,INSTITUCION EDUCATIVA SANTA ROSA N° 16537,-5.2917966,-79.1594961,DIRESA,0
454,2332,841,CASA COMUNAL ORCCOCORRAL - CONGALLA,-12.9545072,-74.4915954,MINSA,0
455,2333,841,CASA COMUNAL ALELUYA - CONGALLA,-12.9545072,-74.4915954,MINSA,0
456,2334,841,CASA COMUNAL CHALLHUAPUQUIO - CONGALLA,-12.9545072,-74.4915954,MINSA,0
457,2335,841,CASA COMUNAL TOTORA - CONGALLA,-12.9545072,-74.4915954,MINSA,0
458,2336,841,IPRESS - P.S. CONGALLA,-12.9545072,-74.4915954,MINSA,0
459,2337,839,IPRESS - C.S. CCOCHACCASA,-12.9281474,-74.7703445,MINSA,0
460,2338,837,IPRESS - P.S. TUCO,-12.9295032,-74.7318638,MINSA,0
461,2339,837,PLAZA PRINCIPAL RANTAY - TUCO,-12.9243208,-74.710093,MINSA,0
462,2340,654,INSTITUCION EDUCATIVA VIRGENGEN DE LAS MERCEDES N° 16538,-5.3479978,-79.1143945,DIRESA,0
463,2341,693,Estadio Campolo Alcalde,-12.0650402,-77.1078758,MINSA,0
464,2342,648,TITO CUSI YUPANQUI,-5.1468579,-79.0026218,DIRESA,0
465,2343,648,ELOY SOBERON FLORES,-5.1440005,-78.9977086,,0
466,2344,648,NUESTRA SEÑORA DE FATIMA,-5.145029,-79.00691,,0
467,2345,258,RSAb - Loza Municipal de Cachora  C.S. Cachora,-13.51230797,-72.81011421,,0
468,2346,1122,Local Comunal del Centro Poblado de Rucubamba,-11.05575813,-75.84669491,,0
469,2347,1678,C.S. CAMICACHI,-16.03060154,-69.56772422,MINSA,0
470,2348,1457,POLIDEPORTIVO DE FRANCISCO DE ORELLANA,-3.4269413,-72.7673451,,0
471,2349,1028,I.E. HILDA BRINGAS,-13.71331599,-76.19883499,DIRESA,0
472,2350,1028,ESTADIO TEOVALDO PINILLOS - VACUNACAR ESSALUD,-13.71194153,-76.20889783,DIRESA,0
473,2351,318,LOZA GRASS SINTETICO DE ROCCHACC.,-13.4406997,-73.6004766,,0
474,2352,318,I.E.P. SANTA ROSA,-13.439997,-73.5964111,,0
475,2353,1671,COLISEO CERRADO JULI,-16.2177858,-69.4649059,,0
476,2354,1676,JACH'A MAMA Y JACH'A TATA,-16.27075793,-69.29227796,,0
477,2355,1677,TEATRIN MUNICIPAL,-16.49689504,-69.1031386,,0
478,2356,1672,IEP HORACIO ZEBALLOS GAMEZ,-16.56377318,-69.04263324,,0
479,2357,1674,CENTRO DE SALUD KELLUYO,-16.72780401,-69.24937595,,0
480,2358,1675,CENTRO DE SALUD PIZACOMA,-16.90786239,-69.37028986,,0
481,2359,1673,CENTRO DE SALUD HUACULLANI,-16.62938265,-69.32291981,,0
482,2360,1773,I.E. 0292,-6.3921,-76.6381,MINSA,0
483,2361,253,RSAb - I. E. VARIANTE AGROPECURIO -   P.S. OCOBAMBA,-13.87168877,-72.95675486,,0
484,2362,1783,I.E. JOSE ANTONIO ENCINAS FRANCO,-6.77731,-76.2918,,0
485,2363,1781,I.E INICIAL JARDIN N° 318,-6.7904,-76.3287,,0
486,2364,1696,C.S. PALCA,-15.3272199,-70.5740886,,0
487,2365,283,LOZA DEPORTIVA  I.E. PRIMARIA N°2541 - MOLLEBAMBA,-14.5551216,-72.9224329,,0
488,2366,285,CENTRO SALUD PACHACONAS - PACHACONAS,-14.2238172,-73.015602,,0
489,2367,281,LOZA DEPORTIVA  EL ORO - AYAHUAY,-14.2086426,-73.0581379,,0
490,2368,286,I.E. PRIMARIA (HUGO ALEJANDRINO BERRIOS DE CASAS) - SABAINO,-14.32663,-72.9516979,,0
491,2369,282,I.E.  ANTONIO  CENTENO ZELA - HUAQUIRCA,-14.3198009,-72.7806422,,0
492,2370,280,CENTRO DE SALUD ANTABAMBA - 2552,-14.3647468,-72.878583,,0
493,2371,335,PALACIO METROPOLITANO DE BELLAS ARTES MARIO VARGAS LLOSA,-16.4095069,-71.5429189,DIRESA,0
494,2372,401,IIEE CLEOTILDE ODICIO ZUÑIGA,-15.620729,-71.980374,DIRESA,0
495,2373,401,PLAZA PRINCIPAL PINCHOLLO,-15.615118,-71.838831,DIRESA,0
496,2374,403,II.EE. SAN FRANSISCO DE ASIS - JACHAÑA,-14.9124461,-71.878955,DIRESA,0
497,2375,402,II.EE. LUIS PONCE GARCIA,-15.505959,-71.445287,DIRESA,0
498,2376,1490,I.E. EMBLEMATICO JENARO HERRERA,-7.3481237,-75.0040494,MINSA,0
499,2377,330,RSG - PLAZA DE ARMAS SANTA ROSA - GRAU,-14.13988996,-72.65705851,MINSA,0
500,2378,652,INSTITUCION EDUCATIVA N 16509 JOSE CARLOS MARIATEGUI,-5.003183896,-79.08902376,DIRESA,0
501,2379,326,RSG - I.E. 4408 AYRIHUANCA - GRAU,-14.1149223,-72.61420409,MINSA,0
502,2380,652,P.S. CESARA,-5.012728685,-79.1640581,DIRESA,0
503,2381,652,P.S. CHIMARA,-4.975465527,-79.17398964,DIRESA,0
504,2382,652,P.S. PAMPA VERDE,-5.104127002,-79.11523585,DIRESA,0
505,2383,332,RSG - I.E PRIMARIA SAGRADO CORAZON DE JESUS - VILCABAMBA,-14.07556568,-72.62484892,,0
506,2384,653,COMPLEJO DEPORTIVO - SAN JOSE DE LOURDES,-4.921441687,-78.89602393,DIRESA,0
507,2385,1507,I.E.52063 VILLA SANTIAGO - INAMBARI,-12.9816002,-70.3462582,,0
508,2386,253,RSAb - I. E. PRIMARIA Nº 54016 CIRCA (P. S. HUIRAHUACHO),-13.87821148,-72.87566225,MINSA,0
509,2387,324,RSG - GRAS SINTETICO  - HUAYLLATI GRAU,-13.90760023,-72.46155085,,0
510,2388,267,RSAb - COLISEO RICARDO PALMA (C. S. Pacobamba),-13.6162211,-73.08605162,MINSA,0
511,2389,252,RSAb - LOZA DEPORTIVA (C. S. CASINCHIHUA),-13.87503645,-73.02747037,MINSA,0
512,2390,1508,I.E. MIGUEL GRAU SEMINARIO - EL TRIUNFO,-12.5876206,-69.1705588,DIRESA,0
513,2391,317," "" GRAS SINTETICO DE RANRACANCHA""",-13.5364734,-73.5947459,,0
514,2392,327,RSG - IE. SECUNDARIA JUAN DE ESPINOZA MEDRANO -  PATAYPAMPA GRAU,-14.18167712,-72.6738501,MINSA,0
515,2395,1342,I.E.P. JOSE BUENAVENTURA SEPULVEDA,-13.0763734,-76.3894411,DIRESA LIMA,0
516,2396,1129,POLIDEPORTIVO RIO NEGRO,-11.2089147,-74.659421,MINSA,0
517,2398,1152,II.EE. 30063,-12.08119499,-75.31278,MINSA,0
518,2399,1156,Plaza Pricipal San Juan de Iscos,-12.10033028,-75.2954422,,0
519,2400,1153,I.E. 31915 - Virgen de Fátima,-12.22032192,-75.25858661,MINSA,0
520,2401,1041,I.E. 30157,-12.46111767,-75.45372671,MINSA,0
521,2402,1039,Plaza Principal de Chicche,-12.28095456,-75.32116339,,0
522,2403,1312,ESTADIO MUNICIPAL EL PALOMAR ANEXO 22 SAN ANTONIO,-11.919156,-76.9498,MINSA,0
523,2404,1049,Municipio,-12.32523238,-75.28133795,,0
524,2405,1298, EXPLANADA DE VACUNACIÓN  DEL ESTABLECIMIENTO DE SALUD SAGRADO CORAZÓN DE JESUS,-12.0072123,-76.9557701,MINSA,0
525,2406,1043,Plaza Principal,-12.31785326,-75.22091314,,0
526,2407,1038,Municipio,-12.42382425,-75.25936529,,0
527,2408,1312,I.E. ANTENOR ORREGO,-11.8789794,-76.9521649,MINSA,0
528,2409,1037,Plaza Principal,-12.34730024,-75.20791502,,0
529,2410,1154,I.E. Señor de los Milagros,-12.0201103,-75.34239498,,0
530,2411,1071,I.E. Leopoldo Astete Maravi N° 300312,-12.00264838,-75.36505429,,0
531,2412,1067,Colegio San Roque,-11.99618599,-75.45960003,,0
532,2413,1077,Estadio de Chaquicocha,-12.03604723,-75.51115292,,0
533,2414,1077,Parque Principal,-12.0787797,-75.56967342,,0
534,2415,1069,Local Comunal,-11.6899612,-74.98352051,,0
535,2416,1157,Plaza Principal de Jarpa,-12.10839168,-75.44806003,,0
536,2417,1159,Plaza Principal de Yanacancha,-12.24129511,-75.61764329,,0
537,2418,1312,I.E NIÑOS DEL PARAISO,-12.0027717,-76.9875484,MINSA,0
538,2419,1298,LOZA DEPORTIVA VALLE TRIUNFO,-11.9853586,-76.9497266,MINSA,0
539,2420,1385,P.S CHACLLA,-11.8289311,-76.8028933,DIRESA LIMA,0
540,2421,1370,HSJM/ COLEGIO BENTIN,-11.8446484,-76.3856807,DIRESA LIMA,0
541,2422,1789,I.E N° 0146 CESAR ABRAHAM VALLEJO MENDOZA,-6.799693,-76.235927,,0
542,5719,1756,I.E. 550 INICIAL Y PRIMARIO,-6.748375,-76.6337617,,0
543,5720,1757,I.E. 0549 NIVEL PRIMARIA,-6.5486685,-76.7434655,,0
544,5721,1755,I.E 0768 NIVEL PRIMARIO,-6.4007434,-76.8260766,,0
545,5722,1506,P.S LAS MERCEDES,-12.7055504,-69.4462556,,0
546,5723,1509,COMUNIDAD FLORIDA ALTA,-12.5360405,-70.0026756,,0
547,5724,1509,COMUNIDAD AMARAKAIRE,-12.5360405,-70.0026756,,0
548,5725,1755,I.E 0034 NUEVO PIURA - PRIMARIA,-6.4796481,-76.7075882,,0
549,5726,1757,I.E 0028 NUEVO TRUJILLO - PRIMARIA INTEGRADO,-6.50875,-76.7033844,,0
550,5727,1753,I.E 404 DIVINO NIÑO NIVEL INICIAL Y CEBE,-6.6146092,-76.6896162,,0
551,5728,1753,I.E 430 -  NIVEL INICIAL,-6.6211022,-76.7006012,,0
552,5729,1753,I.E 416 INICIAL,-6.6280454,-76.6993624,,0
553,5730,1753,I.E 278 PRIMARIO,-6.6223207,-76.6980459,,0
554,5731,1755,I.E 0423 PUNCHANA - INICIAL,-6.5169001,-76.7365189,,0
555,5732,1755,I.E 0624 LA RIVERA - INICIAL Y PRIMARIA,-6.5129752,-76.7450638,,0
556,5733,1757,I.E 405 INICIAL,-6.5302982,-76.7185135,,0
557,5734,1753,I.E 182  INICIAL,-6.6148701,-76.6833801,,0
558,5735,1755,I.E 0011 PRIMARIA Y SECUNDARIA - PEBAS,-6.4817557,-76.8020782,,0
559,5736,1754,I.E 0280 PRIMARIA,-6.7253451,-76.6952591,,0
560,5737,1162,CVP Florencia de Mora parte alta - Florencia,-8.0777143,-79.0215434,,0
561,5738,1162,CVP La Cabaña - Florencia de Mora,-8.0781671,-79.0144142,,0
562,5739,1162,CVP Santo Toribio - Florencia de Mora,-8.0803549,-79.0270589,,0
563,5740,1741,I.E. MARIA ENCARNACION LOJA VASQUEZ,-6.044162272,-76.97999385,,0
564,5741,1753,I.E 089,-6.5980668,-76.6956711,,0
565,5742,1754,I.E 254 - INICIAL,-6.7253451,-76.6952591,,0
566,5743,1754,I.E 227 - BARRIO SAN JOSE,-6.7265,-76.6986084,,0
567,5744,1753,I.E 253 INICIAL,-6.6153221,-76.6952591,,0
568,5745,1754,I.E 0264 PRIMARIA,-6.7516036,-76.6783995,,0
569,5746,1754,I.E 332 PRIMARIA,-6.762609,-76.6969681,,0
570,5747,1283,Parque Zoologico de Huachipa,-12.0150383,-76.8982948,,0
571,5748,1283,Real Plaza Santa Clara,-12.0152597,-76.8854892,,0
572,5749,1281,Estación Presbitero Maestro,-12.0415765,-77.0117086,,0
573,5750,1741,COLEGIO DE ALTO RENDIMIENTO SAN MARTIN (COAR),-6.018207714,-76.98730003,,0
574,5751,1771,CC.NN AVIACIÓN SAN ROQUE DE CUMBAZA,-6.36487,-76.48639,,0
575,5752,1755,I.E 421 INICIAL,-6.5187373,-76.7565536,,0
576,5753,1755,I.E 420 INICIAL,-6.5187268,-76.7565308,,0
577,5754,1754,I.E 130 INICIAL,-6.7008567,-76.7116852,,0
578,5755,1755,I.E 401,-6.513998,-76.7401276,,0
579,5756,1755,I.E 0379 PRIMARIA,-6.5184374,-76.7569046,,0
580,5757,1751,229 MARIA ELENA MOYANO - INICIAL,-6.798913,-76.535164,,0
581,5758,1751,0042 HUMBERTO DEL AGUILA ARRIEGA - PRIMARIA,-6.79991,-76.52764,,0
582,5759,1753,I.E 329 - POLICARPIO RIOS FACHIN -  NIVEL PRIMARIO,-6.5644612,-76.7131729,,0
583,5760,1753,I. E. 418 - NIVEL INICIAL,-6.564209,-76.7133713,,0
584,5761,1747, 0050 ABRAHAM CARDENAS RUIZ,-7.0605,-76.5901,,0
585,5762,1753,I.E 0044 PRIMARIA,-6.6823249,-76.6882477,,0
586,5763,1753,I.E 429 INICIAL,-6.6811132,-76.6879578,,0
587,5764,1747,0719 - PRIMARIA,-6.971017,-76.63843,,0
588,5765,1755,I.E 0384 LA MIXTA,-6.5140271,-76.7406235,,0
589,5766,1755,I.E 0020 PRIMARIA - SECUNDARIA,-6.4391059,-76.725471,,0
590,5767,1755,I.E. 409 NIVEL INICIAL,-6.4383957,-76.7271333,,0
591,5768,1755,I.E. 0624 - NIVEL PRIMARIO,-6.5149811,-76.7312454,,0
592,5769,1291,Sedapal - La Atarjea,-12.0331248,-76.9838113,,0
593,5770,1801,Colegio Militar Mariscal Cáceres,-6.4749109,-76.3966453,,0
594,5771,1755,0686 FLOR DEL NORTE - PRIMARIA,-6.3964281,-76.8942407,,0
595,5772,1753, 0600 - PRIMARIO,-6.5984,-76.6962,,0
596,5773,1790,00813 JUAN GRIMALDO CAHUAZA MALAPI,-6.0724,-77.1607,,0
597,329,150,Institucion Educatva Virgen De Fatima,-9.35157,-77.1767,MINSA,0
598,330,969,Coliceo Cerrado Municipal Del Distrito De Panao,-9.8955,-75.9957,MINSA,0
599,331,919,Universidad Nacional Hermilio Valdizan,-9.9485189,-76.25019307,MINSA,0
600,332,978,I.E. José Varallanos,-10.0734616,-76.63145679,MINSA,0
601,333,982,P.S Patopampa,-9.9840424,-76.688915,MINSA,0
602,334,961,Cooperativa Agroindustrial Cacao Alto Huallaga (Caicah),-9.276384,-76.005789,MINSA,0
603,335,961,I.E. Cesar Vallejo,-9.27833,-76.00912,MINSA,0
604,336,957,I.E Victor Hans Langemak,-8.93273,-76.11724,MINSA,0
605,337,954,I.E. Gomez Arias Davila,-9.305583,-76.002472,MINSA,0
606,338,954,I.E. Padre Abad,-9.299466,-75.999506,MINSA,0
607,339,954,I.E. Supte San Jorge,-9.287451,-75.975052,MINSA,0
608,340,954,Loza Deportiva Centro Poblado Venenillo,-9.08957,-76.094904,MINSA,0
609,341,965,Paraiso,-8.49485196,-76.38590687,MINSA,0
610,342,971,Centro De Salud Molino,-9.9095,-76.018,MINSA,0
611,343,974,Coliseo Multiuso Codo Del Pozuzo,-9.67,-75.4631,MINSA,0
612,344,1463,I.E 60024 - SAN JUAN,-3.77352,-73.29051,MINSA,0
613,345,1453,COLEGIO SANTO CRISTO DE BAGAZAN Nº 60014,-3.76189,-73.26149,MINSA,0
614,346,1453,COLEGIO MARISCAL OSCAR  R. BENAVIDES,-3.748285,-73.251739,ESSALUD,0
615,347,1460,POLIDEPORTIVO DEL PARQUE ZONAL,-3.72568,-73.23837,MINSA,0
616,348,1453,COLEGIO MAYNAS,-3.734181,-7.3251739,ESSALUD,0
617,349,1460,COLEGION NUESTRA SEÑORA DE LA SALUD,-3.72662,-73.25411,MINSA,0
618,350,1847,I.E. N 20 HILARIO CARRASCO,-3.60426419,-80.4827921,DIRESA,0
619,351,1848,Museo De La Municipalidad,-3.63801749,-80.59983037,DIRESA,0
620,352,1851,Centro De Salud San Juan De Virgen,-3.62636607,-80.43444812,DIRESA,0
621,353,1846,Auditorium Perez De Cuellar.,-3.57114869,-80.45936107,DIRESA,0
622,354,1846,I.E. 054 Fermina Campaña De Zuñiga,-3.56117861,-80.42680987,DIRESA,0
623,355,1846,Instalaciones De Inabif,-3.55650956,-80.42711589,DIRESA,0
624,356,1846,Is.P Pedagógico José Encinas,-3.55623443,-80.44398073,DIRESA,0
625,357,1846,Salon Comunal De La Municipalidad De Puerto Pizarro,-3.50294762,-80.39171338,DIRESA,0
626,358,1856,Cuchareta Baja - Casa Por Casa,-3.52547613,-80.23882233,DIRESA,0
627,359,1856,COMPLEJO FRONTERIZO (EX ADUANA),-3.48611612,-80.26090566,DIRESA,0
628,360,1856,Loma Saavedra - Casa Por Casa,-3.50394191,-80.22602281,DIRESA,0
629,361,1856,Salon Comunal,-3.50883484,-80.24143361,DIRESA,0
630,362,1848,COLISEO MUNICIPAL - LA CRUZ,-3.636658,-80.5879698,DIRESA,0
631,363,1269,Institución Educativa-Ex- Cosome-Chiclayo,-6.7197666,-79.9080757,DIRESA,0
632,364,1254,Institución Educativa-Elvira Garcia y Garcia-Chiclayo,-6.7371228,-79.8906072,DIRESA,0
633,365,1243,Institución Educativa-Rosa Flores de Oliva-Chiclayo,-6.7693944,-79.866649,DIRESA,0
634,366,1254,Institución Educativa-Nicolas La Torre-JLO,-6.735331,-79.8930778,DIRESA,0
635,367,1269,Institución Educativa-Carlos A Salaverry-La Victoria,-6.7197666,-79.9080757,DIRESA,0
636,368,1269,Institución Educativa-Naylamp-Chiclayo,-6.7197666,-79.9080757,DIRESA,0
637,369,1269,Institución Educativa-Juan Manuel Iturregui-Lambayeque,-6.7111897,-79.9056365,DIRESA,0
638,370,1269,Institución Educativa-San Martin-Lambayeque,-6.7011827,-79.9030632,DIRESA,0
639,372,575,"Centro Medico Municipal ""german Contreras Jara""",-7616079.0,-78.049183,DIRESA,0
640,373,575,Complejo Deportivo Santa Ana,-7.626527,-78.047626,DIRESA,0
641,374,579,Coliseo Cerrado Celendin,-6.863859,-78.14189,ESSALUD,0
642,375,579,Hospital General Celendin,-6.86833315,-78.14225238,MINSA,0
643,376,618,Isntitucion Educativa Toribio Casanova,-6.379656,-78.813717,MINSA,0
644,377,618,Salomon Vilchez Murga,-6.389751,-78.817388,MINSA,0
645,378,636,I.E Villanueva Pinillos,-5.70746588,-78.81735276,MINSA,0
646,379,636,I.E. Jaen De Bracamoros,-5.69519003,-78.80832461,MINSA,0
647,380,636,I.E. Sagrado Corazon,-5.70857266,-78.81437671,ESSALUD,0
648,381,636,Institucion Educativa San Luis Gonzaga Fe Y Alegria,-5.71490127,-78.80921569,MINSA,0
649,382,636,Institucion Educativa Señor De Los Milagros,-5.72003743,-78.80140981,MINSA,0
650,383,636,Institucion Educativa Victor Raul Haya De La Torre,-5.71447681,-78.80295977,MINSA,0
651,384,636,Loza Deportiva Las Flores,-5.7041135,-78.80162904,MINSA,0
652,385,636,Loza Deportiva Los Aromos,-5.71573563,-78.80556325,MINSA,0
653,387,591,Institucion Educativa Inicial 301,-6.59861,-78.652481,ESSALUD,0
654,388,636,Institucion Educativa Inmaculada Concepcion - 16049,-5.715004,-78.796257,MINSA,0
655,389,636,Loza Deportiva Fila Alta - 3era Etapa,-5.746612,-78.78926,MINSA,0
656,391,909,I.E. San Pedro,-9.93137462,-76.24976764,MINSA,0
657,392,1079,Centro Del Adulto Mayor,-11.06018,-75.3356505,MINSA,0
658,393,1079,Universidad Peruana Los Andes,-11.07217,-75.33926,MINSA,0
659,394,1081,Ie. Ricardo Palma Soriano,-10.9265815,-74.8767432,MINSA,0
660,395,1080,Instituto De Educacion Superior Tecnologico Publico Puerto Libre,-10.944035,-75.226029,MINSA,0
661,396,1081,Centro De Atencion Del Adulto Mayor,-10.9284252,-74.8755574,MINSA,0
662,397,1083,I. E. Agropecuario - Ina 18,-11.125853,-75.360088,MINSA,0
663,398,1151,Parroquia San Juan Bautista,-12.060299,-75.289296,MINSA,0
664,399,1155,Ie 30080 Jesus Maria Y Jose,-12.081613,-75.242541,MINSA,0
665,400,1158,Colegio Simon Bolivar,-12.104942,-75.247905,MINSA,0
666,401,1085,Court De Basquet Jauja,-11.781808,-75.495108,MINSA,0
667,402,1085,Hospital Domingo Olavegoya,-11.777113,-75.496831,MINSA,0
668,403,1114,Plaza Principal De Sausa,-11.793656,-75.484621,MINSA,0
669,404,1118,Centro De Salud Yauyos,-11.780757,-75.499816,MINSA,0
670,405,1123,Coliseo Shirampari,-11.253396,-74.6374927,MINSA,0
671,406,1141,Coliseo Cerrado De La Oroya,-11.5170082,-75.9023733,ESSALUD,0
672,407,1148,Estadio I.P.D. La Oroya,-11.5273109,-75.917826,MINSA,0
673,408,1148,I.E. Jose Maria Arguedas,-11.5395668,-75.9289568,MINSA,0
674,409,1540,Coliseo De Huayllay,-11.0017,-76.36347,ESSALUD,0
675,410,1576,Plaza De Armas De La Paz,-4.64022468,-79.71526757,MINSA,0
676,411,1588,I.E. Primaria De Sapalache,-5.14909806,-79.42933669,DIRESA,0
677,412,1593,Casa Comunal De Sondorillo,-5.33933844,-79.42861257,DIRESA,0
678,413,1594,I.E. 14619 Yapatera,-5.06035503,-80.13698238,DIRESA,0
679,414,1594,I.E. 14620 Divina Misericordia Batanes,-5.14289985,-80.10803462,DIRESA,0
680,415,1594,I.E. 14632 Mariano Melgar Sol Sol,-5.03444876,-80.18973034,DIRESA,0
681,416,1594,I.E. 15131 San Pedro,-5.09311511,-80.1581385,DIRESA,0
682,417,1594,I.E. 15199 Zona San José Paccha.,-5.00782453,-80.22405087,DIRESA,0
683,418,1594,Local De La Municipalidad Delegada De La Encantada,-5.0943116,-80.20037679,DIRESA,0
684,419,1594,"Local Usos Multiples ""km 50""",-5.16900401,-80.18546832,DIRESA,0
685,420,1604,Centro De Salud Juan Valer,-5.10363483,-81.10814307,MINSA,0
686,421,1604,Coliseo Tomasada Cobos,-5.08624961,-81.10978614,MINSA,0
687,422,1604,I.E. Juan Pablo Ii,-5.09710483,-81.10499827,ESSALUD,0
688,423,1567,Colegio Miguel Cortes,-5.21790919,-80.62540247,MINSA,0
689,424,1568,Local Juan Pablo Ii,-5.23589585,-80.65994588,DIRESA,0
690,425,1571,I.E 15482 Maria Auxiliadora,-5.34333283,-80.70595759,DIRESA,0
691,426,1571,I.E. Divino Maestro,-5.3805383,-80.69430109,DIRESA,0
692,427,1571,I.E. Ricardo Palma,-5.32204627,-80.75361385,DIRESA,0
693,428,1572,Mini Coliseo De La Union,-5.40201726,-80.74040745,DIRESA,0
694,429,1572,Terminal Terrestre La Union,-5.40098244,-80.74631454,DIRESA,0
695,430,1574,Centro De Salud Tambogrande,-4.92272673,-80.33636547,MINSA,0
696,432,1611,Ie Señor Cautivo,-4.90905433,-80.72281425,MINSA,0
697,433,1619,Centro De Salud Abelardo Quiñones,-4.59429025,-81.25810941,MINSA,0
698,225,1163,Complejo Deportivo Simon Bolivar,-8.08015747,-79.12207972,DIRESA,0
699,226,1163,Polideportivo Milagro,-8.02632065,-79.06779048,DIRESA,0
700,227,1164,Estadio Víctor Raul Haya De La Torre,-8.07614025,-79.05511035,DIRESA,0
701,228,1164,I.E Dios Es Amor,-8.05633492,-79.05268865,DIRESA,0
702,229,1164,I.E San Martin,-8.05115677,-79.0527066,ESSALUD,0
703,230,1164,I.E. José Olaya,-8.07693189,-79.04999635,ESSALUD,0
704,231,1165,Centro Deportivo Union Laredo,-8.091465,-78.960333,DIRESA,0
705,232,1165,Polideportivo Laredo,-8.98800646,-78.96392121,ESSALUD,0
706,233,1166,Coliseo Luz Marina Neyra De Fernandez,-8.17044266,-79.00904936,DIRESA,0
707,234,1168,Teatro Salaverry,-8.22298606,-78.974,DIRESA,0
708,235,1160,Cepunt,-8.11662793,-79.04332734,ESSALUD,0
709,236,1160,"Cuartel ""32a Brigada De Infanteria - Trujillo""",-8.09575504,-79.01850924,DIRESA,0
710,237,1160,I.E. Gue José Faustino Sánchez Carrión (Movil),-8.12291311,-79.02459572,DIRESA,0
711,238,1160,I.E. San Juan,-8.10334556,-79.02795601,DIRESA,0
712,239,1160,Institucion Educativa Pedro Mercedes Ureña N° 81014 - Centro Viejo,-8.11217443,-79.0487836,DIRESA,0
713,240,1160,Upao (Movil Y Peatonal),-8.12702081,-79.03147426,ESSALUD,0
714,241,1170,I.E. Andres Avelino Caceres,-8.13403239,-79.03932479,DIRESA,0
715,242,1170,I.E. Antonio Encinas,-8.14441039,-79.05071788,DIRESA,0
716,243,1170,Preventorio,-8.13884426,-79.05148296,ESSALUD,0
717,244,1317,Vacunatorio San Isidro labrador,-12.04374386,-76.94626406,ESSALUD,0
718,246,1292,Clínica Jesus Del Norte,-11.98957989,-77.05879467,PRIVADO,0
719,247,1281,Centro De Vacunación Aljovin,-12.05728714,-77.03232955,ESSALUD,0
720,248,1311,Complejo Deportivo - Municipalidad De San Isidro,-12.1080212,-77.05449962,ESSALUD,0
721,249,1312,Clínica San Miguel Arcangel (Sjl),-11.97035171,-77.00171936,MINSA,0
722,250,1313,Complejo Del Ipd,-12.16264321,-76.9719422,MINSA,0
723,251,1315,Parque Zonal Mayta Capac,-12.00910317,-77.08659872,MINSA,0
724,252,1320,I.E.F.A.P Manuel Polo Jiménez,-12.14885948,-76.99293476,MINSA,0
725,253,85,Casa Del Maestro,-9.53067108,-77.52689945,ESSALUD,0
726,254,85,Coliseo Cerrado Huaraz,-9.53717739,-77.52778509,DIRESA,0
727,255,85,I.E. La Libertad,-9.5273156,-77.52648854,CC PNP,0
728,257,85,I.E.I 233 La Soledad,-9.53102582,-77.52270435,DIRESA,0
729,258,89,Ciudad Universitaria De La Unasam,-9.51755841,-77.52457101,ESSALUD,0
730,259,89,Complejo Deportivo Videnita,-9.49508143,-77.53996966,ESSALUD,0
731,260,89,I.E.P Nuestra Señora Del Sagrado Corazon De Jesus,-9.5154781,-77.53261695,MINSA,0
732,261,224,Estadio Centenario,-9.09967302,-78.56082036,DIRESA,0
733,262,224,I.E. Eleazar Guzman Barron,-9.07395394,-78.57547666,DIRESA,0
734,263,224,I.E. Santa Maria Reyna,-9.0693773,-78.58294254,DIRESA,0
735,264,232,Complejo Polideportivo Casuarinas,-9.13154275,-78.5234325,ESSALUD,0
736,265,232,I.E. Augusto Salazar Bondy,-9.12720487,-78.52916537,DIRESA,0
737,266,232,I.E. Fe Y Alegria Nº 14,-9.11302933,-78.53644274,DIRESA,0
738,267,232,I.E. N°88389 Juan Valer Sandoval,-9.11647695,-78.50556971,MINSA,0
739,268,232,Plaza De Estacionamiento Real Plaza,-9.12647146,-78.53531176,DIRESA,0
740,269,335,Estadio Monumental Univiersidad San Agustin,-16.4072601,-71.52038619,ESSALUD,0
741,270,338,Complejo Rayo Chachani,-16.352015,-71.56631,DIRESA,0
742,271,338,I.E. 40044 San Martin De Porres,-16.32281874,-71.59304658,DIRESA,0
743,272,338,I.E. 41026 Maria Murillo De Bernal,-16.377167,-71.560806,DIRESA,0
744,273,338,I.E. Alejandro Sanchez Arteaga,-16.394972,-71.57736,DIRESA,0
745,274,338,I.E. Fe Y Alegria N°51,-16.32578,-71.55591,DIRESA,0
746,275,338,I.E. Santo Tomás De Aquino-Circa,-16.393503,-71.567192,DIRESA,0
747,276,363,Palacio Del Deporte,-16.43317777,-71.52792718,ESSALUD,0
748,277,363,Parque Urb. La Melgariana,-16.42727559,-71.52108264,ESSALUD,0
749,278,346,I.E. José Carlos Mariategui,-16.415771,-71.512674,DIRESA,0
750,279,346,I.E. Julio C. Tello,-16.417628,-71.492632,DIRESA,0
751,280,346,I.E. Paola Fraysinetti,-16.412773,-71.491481,DIRESA,0
752,281,346,I.E. Santa María De La Paz,-16.433862,-71.491225,DIRESA,0
753,282,346,I.E. Teobaldo Paredes,-16.412237,-71.498803,DIRESA,0
754,283,346,I.E. Virgen Del Carmen,-16.417525,-71.472184,DIRESA,0
755,284,346,Parque Nuevo Perú,-16.424503,-71.497225,DIRESA,0
756,285,697,Colegio De Señoritas Educandas,-13.516718,-71.982168,,0
757,286,697,Unsaac Escuela Profesional De Medicina Humana,-13.52264,-71.957258,,0
758,287,700,C.D. Cajonahuaylla,-13.549036,-71.877903,DIRESA,0
759,288,701,Instituto Superior Tecnologico Tupac Amaru,-13.533377,-71.927303,DIRESA,0
760,289,702,Centro Cultural Koripata. El Bosque,-13.527208,-71.977375,,0
761,290,704,Parque Quillabamba,-13.529735,-71.961957,MINSA,0
762,291,704,Parque Velasco Astete,-13.536838,-71.947781,MINSA,0
763,292,704,Uac Centro De Idiomas / Escuela De Medicina Humana,-13.521958,-71.964836,,0
764,293,993,Colegio Data Systems Ingenieros,-14.07962398,-75.7500497,C.S. EL INGENIO,0
765,294,993,Escuela 23007 Judith Aybar De Granados - Ica,-14.05840993,-75.73049986,MINSA,0
766,295,1002,Ie. Maximo De La Cruz Solorsano,-14.03894264,-75.73592942,MINSA,0
767,296,993,Inicial – Jardín Rincon De Cachiche N° 03,-14.094,-75.7356,MINSA,0
768,297,993,Institucion Educativa El Huarango Secundaria,-14.07723586,-75.76638882,MINSA,0
769,298,993,Ipd Club Del Pueblo Ica,-14.07802928,-75.73141044,ESSALUD,0
770,299,993,Ipd. Complejo Deportivo San Isidro,-14.07464553,-75.73402239,MINSA,0
771,300,994,Ie Micaela Bastidas Puyucawa,-14.03724918,-75.70258907,MINSA,0
772,301,995,Ie Jose Huaman Girao,-14.09356725,-75.70221499,MINSA,0
773,302,998,Ie. 22319 Colegio De Mujeres,-14.04816588,-75.70763592,MINSA,0
774,303,1000,Estadio Juan De Dios Bolivar,-13.98881264,-75.77239616,MINSA,0
775,304,1002,Ie Genaro Huaman Acuache,-14.01317771,-75.73689982,C.S. OCUCAJE,0
776,305,1004,Ie Andres Avelino Caceres,-14.01974952,-75.75741936,MINSA,0
777,306,1036,Coliseo Wanka,-12.07777272,-75.2108348,MINSA,0
778,307,1045,Colegio Salesiano Santa Rosa,-12.06570424,-75.21398647,MINSA,0
779,308,1045,Hospital Ramiro Prialé Prialé,-12.05262921,-75.22890758,ESSALUD,0
780,309,1036,"Centro Internacional De Negocios ""yanama""",-12.07473142,-75.21419736,MINSA,0
781,310,1325,I.E. 21012,-10.75451,-77.76354,MINSA,0
782,311,1325,I.E. Lauriama Primaria 20478,-10.74554,-77.75815,DIRESA,0
783,312,1325,I.E. Virgen De Lourdes 21011,-10.7559,-77.7639,MINSA,0
784,313,1358,Colegio Nuestra Señora Del Carmen,-11.495577,-77.209441,DIRESA LIMA,0
785,314,1358,Coliseo Campeones De Huaral,-11.496574,-77.216209,MINSA,0
786,315,1358,Ie 20449 Andres De Los Reyes,-11.493961,-77.198614,MINSA,0
787,316,1406,Estadio Segundo Aranda Torres,-11.1022896,-77.6054335,MINSA,0
788,317,1402,CENTRO PRE UNIVERSITARIO UNIV JOSE FAUSTINO SANCHEZ CARRION,-11.12391451,-77.61024157,DIRESA,0
789,318,1506,I.E. Augusto Bouroncle Acuña - TAMBOPATA,-12.5994956,-69.18587032,DIRESA,0
790,319,1506,I.E. DOS DE MAYO - TAMBOPATA,-12.58582006,-69.1895521,DIRESA,0
791,320,1506,I.E. JOSE ABELARDO QUIÑONEZ - LA JOYA,-12.60235905,-69.21254726,DIRESA,0
792,321,1506,I.E. SEÑOR DE LOS MILAGROS - TAMBOPATA,-12.59449211,-69.19883717,MINSA,0
793,322,1534,I.E. Virgen Del Rosario,-17.6386,-71.3393,MINSA,0
794,323,1517,Complejo Deportivo Alto Tiwinza,-17.20056601,-70.9455723,MINSA,0
795,324,1534,Plaza Francisco Bolognesi,-17.63553,-71.33846,MINSA,0
796,325,1517,Estadio 25 De Noviembre,-17.18618,-70.92973,MINSA,0
797,326,1517,I.E. Simon Bolivar,-17.18683,-70.93169,MINSA,0
798,327,922,I.E. Juan Jose Crespo Y Castillo,-10.12067915,-76.20585984,MINSA,0
799,328,930,I.E.P. Yarowilca,-9.82861,-76.8014,MINSA,0
800,2199,840,CASA COMUNAL - CHINCHO,-13.0219085,-74.3475043,MINSA,0
801,2200,812,LOCAL MUNICIPAL (JUGUEMOS),-12.5197388,-75.0068881,,0
802,2201,812,LOCAL MUNICIPAL (JUGUEMOS),-12.5197388,-75.0068881,DIRESA,0
803,2202,840,CASA COMUNAL MIRAFLORES - CHINCHO,-13.0219085,-74.3475043,MINSA,0
804,2203,882,TINCO CRUZ PATA,-13.7951343,-75.2482707,DIRESA,0
805,2204,813,TAMBO( CARRETERA LUQUIA CONAYCA),-12.4927338,-75.0473821,DIRESA,0
806,2205,813,PUESTO DE SALUD DE TOTORA,-12.4746583,-75.0522376,DIRESA,0
807,2206,1647,DISTRITO ACHAYA,-15.2872484,-70.1615719,MINSA,0
808,2207,887,TAMBO Y ANEXOS,-13.6891917,-75.2753168,DIRESA,0
809,2208,813,ESTADIO MUNICIPAL CUENCA,-12.4331949,-75.0386463,DIRESA,0
810,2209,873,ANEXO AMACLLE Y TAMBILLOS,-13.702845,-75.3513666,DIRESA,0
811,2210,1694,DISTRITO NICASIO,-15.2360359,-70.2579255,MINSA,0
812,2211,827,CENTRO DE SALUD HUANDO,-12.5636036,-74.9503773,DIRESA,0
813,2212,827,AUDITORIO DE LA MUNICIPALIDAD  HUANDO,-12.5643186,-74.9475942,DIRESA,0
814,2213,827,CENTRO POBLADO YANACCOLLPA,-12.583774,-74.9531836,DIRESA,0
815,2214,840,CASA COMUNAL YANACHOCCE - CHINCHO,-13.0219085,-74.3475043,MINSA,0
816,2215,1689,DISTRITO TARACO,-15.2996532,-69.9787293,MINSA,0
817,2216,827,CENTRO POBLADO ESCALERA,-12.6002393,-74.9419579,DIRESA,0
818,2217,827,CENTRO POBLAADO DE UTUSHUAYCCO,-12.5729441,-74.9797086,DIRESA,0
819,2218,827,CENTRO POBLADO DE CCELLOPUCRO,-12.5819422,-74.965906,DIRESA,0
820,2219,827,CENTRO POBLADO CUYAO,-12.5326519,-74.9842707,DIRESA,0
821,2220,827,CENTRO POBLADO DE TAPANA,-12.5206857,-74.9691508,DIRESA,0
822,2221,846,IPRESS - P.S. CUTICSA,-13.1126515,-74.4187303,MINSA,0
823,2222,815,PLAZA PRINCIPAL S/N DEL C.P HUAYLLAHUARA,-12.4089812,-75.1783308,DIRESA,0
824,2223,816,ANEXO TAMBILLO,-12.5048313,-74.9866666,DIRESA,0
825,2224,816,ANEXOLARMENTA,-12.489378,-75.0090386,DIRESA,0
826,2225,816,ANEXO QUICHUA,-12.5073723,-75.0017088,DIRESA,0
827,2226,1650,DISTRITO CAMINACA,-15.3275333,-70.0716967,MINSA,0
828,2227,816, IZCUCHACA,-12.5004743,-74.9971618,DIRESA,0
829,2228,1722,DISTRITO CARACOTO,-15.5706467,-70.1022933,MINSA,0
830,2229,817,P.S SAN JOSE DE BELEN,-12.5501941,-75.0829773,,0
831,2230,817,P.S SAN JOSE DE LARIA,-12.5501941,-75.0829773,,0
832,2231,818, TAMBO DE CCORISOTO,-12.598747,-75.1759917,DIRESA,0
833,2232,818,PUESTO DE SALUD MANTA,-12.6203581,-75.2110277,DIRESA,0
834,2233,1687,DISTRITO PUSI,-15.4415937,-69.9293152,MINSA,0
835,2234,1753,I.E. N 331 INTEGRADO,-6.6095752,-76.7156732,,0
836,2236,1681,C.S. CHECCA,-16.68193941,-69.76667,MINSA,0
837,2237,1653,CENTRO DE SALUD I-4 MUÑANI-AZANGARO-PUNO,-14.76595573,-69.94837252,,0
838,2238,1678,P.S. KANCORA,-16.25132203,-69.63154202,MINSA,0
839,2239,845,IPRESS - P.S. MAICENA,-13.0641103,-74.419645,MINSA,0
840,2240,840,IPRESS - P.S. LLAMOCCTACHI,-12.9911259,-74.3352858,MINSA,0
841,2241,820,C.S MOYA,-12.4232425,-75.1538309,DIRESA,0
842,2242,841,IPRESS - P.S. CARCOSI,-13.013353,-74.4815177,MINSA,0
843,2243,819,P.S MARISCAL CACERES,-12.5492397,-74.9354909,DIRESA,0
844,2244,820,P.S ISLAYCHUMPI,-12.4570821,-75.1311874,DIRESA,0
845,2245,820,P.S ISLAYCHUMPI,-12.4570794,-75.1311851,DIRESA,0
846,2246,820,C.S MOYA,-12.4112293,-75.1375533,DIRESA,0
847,2247,821,P.S OCCORO VIEJO,-12.5835,-75.0374,DIRESA,0
848,2248,821,P.S OCCORO NUEVO,-12.60062,-75.018517,DIRESA,0
849,2249,821,P.S OCCORO NUEVO,-12.7136666,-75.1713575,DIRESA,0
850,2250,821,P.S OCCORO NUEVO,-12.6006192,-75.0185162,DIRESA,0
851,2251,1678,P.S. SIRAYA,-16.27950109,-69.72587868,MINSA,0
852,2252,821,P.S OCCORO NUEVO,-12.5963217,-75.0721506,DIRESA,0
853,2253,821,P.S TAMBOPATA- SATELITE,-12.654376,-75.0947243,DIRESA,0
854,2254,821,P.S OCCORO NUEVO,-12.5941039,-75.0195837,DIRESA,0
855,2255,822,P.S CHILLHUAPAMPA,-12.660612,-74.9793243,DIRESA,0
856,2256,822,P.S CONAICASA,-12.660612,-74.9793243,DIRESA,0
857,2257,822,P.S HUAYANAY,-12.6512014,-75.004742,DIRESA,0
858,2258,822,C.S PALCA,-12.660612,-74.9793243,DIRESA,0
859,2259,822,P.S PUTACCA,-12.6515178,-74.9565458,DIRESA,0
860,2260,823,P.S PILCHACA,-12.401193,-75.0838369,DIRESA,0
861,2261,824,P.S CHAQUICOCHA,-12.4781246,-75.1831552,DIRESA,0
862,2262,1678,C.S. CHIJICHAYA,-16.14996075,-69.68333805,MINSA,0
863,2263,824,P.S CHUYA,-12.4781246,-75.1831552,DIRESA,0
864,2264,824,P.S CHUYA,-12.4781463,-75.1832199,DIRESA,0
865,2265,824,P.S CHUYA,-12.5277861,-75.2531981,DIRESA,0
866,2266,824,P.S CORICOCHA,-12.5537277,-75.2143332,DIRESA,0
867,2267,824,P.S VILCA,-12.4774588,-75.1833879,DIRESA,0
868,2268,824,P.S VILCA,-12.4781246,-75.1831552,DIRESA,0
869,2269,824,P.S VILCA,-12.5106848,-75.1946666,DIRESA,0
870,2270,825,P.S SAN JUAN DE CCARHUACC,-12.8315992,-74.7607718,DIRESA,0
871,2271,825,P.S PANTACHI SUR,-12.8645674,-74.7441356,DIRESA,0
872,2272,847,IPRESS - P.S. TRANCA,-13.0510573,-74.4839123,MINSA,0
873,2273,841,IPRESS - P.S. YUNYACCASA,-12.9427261,-74.5390321,MINSA,0
874,2274,1326,Centro de Salud Paramonga,-10.6794723,-77.8166231,,0
875,2275,1327,Centro de Salud Pativilca,-10.69711,-77.780174,,0
876,2276,1328,Hospital de Supe Laura Esther Rodriguez Dulanto,-10.7973601,-77.7178446,,0
877,2277,1329,Centro de Salud Puerto Supe,-10.8008606,-77.744103,MINSA,0
878,2278,1333,Puesto de Salud Gorgor,-10.549334,-77.1129875,MINSA,0
879,2279,1333,Puesto de Salud Huancapon,-10.549334,-77.1129875,DIRESA LIMA,0
880,2281,1355,ESTADIO BENJAMIN ROCA DE SAN LUIS,-13.0536439,-76.4307398,MINSA,0
881,2282,1353,I.E.P Nº 20177 SAN MARTIN,-12.9406776,-76.3984537,,0
882,2283,1351,ESTADIO TEOFILO CUBILLAS,-13.0750199,-76.3148478,MINSA,0
883,2284,1352,ESTADIO MUNICIPAL DE PACARAN MAXIMILIANO SANTOS,-12.8775491,-76.0683294,MINSA,0
884,2285,1357,COLISEO CERRADO DE ZUÑIGA,-12.849948,-76.0083436,MINSA,0
885,2286,1345,I.E.P. GERARDO SALOMON MEJIA SACO,-13.0221764,-76.4782773,MINSA,0
886,2289,828,HOSPITAL PROVINCIAL ACOBAMBA,-12.84453373,-74.5714063,DIRESA,0
887,2291,580,Institucion Educativa Ramon Castilla-Chumuch,-6.601525293,-78.20198974,,0
888,2292,943,Plaza de Huancabamba,-9.542907,-76.7936172,MINSA,0
889,2293,833,CENTRO  DE SALUD  PAUCARA,-12.73506191,-74.67072685,DIRESA,0
890,2294,943,Plaza de Morca,-9.5527076,-76.7658136,MINSA,0
891,2295,830,PLAZA ANTA,-12.80883576,-74.64977467,DIRESA,0
892,2296,830,CENTRO DE SALUD HUAYANAY,-12.78362757,-74.67968512,DIRESA,0
893,2297,832,PUESTO DE SALUD MARCAS,-12.8882639,-74.4000588,DIRESA,0
894,2298,587,Institucion Educativa David Sanchez Infante-SOROCHUCO,-6.913953476,-78.2518593,,0
895,2299,835,CENTRO DE SALUD PUCA CRUZ,-12.747563,-74.627507,DIRESA,0
896,2300,585,Miguel Iglesias-celendin,-6.650051825,-78.23193716,MINSA,0
897,2301,834,PAMPA DEL C.S. CHOCLOCOCHA,-12.8526535,-74.537173,DIRESA,0
898,2302,579,coliseo cerrado celendin,-6.863561849,-78.14282499,,0
899,2303,831,CENTRO DE SALUD CAJA ESPIRITU,-12.87980589,-74.49171709,DIRESA,0
900,2304,1746,I.E. N° 00518 - DIONICIO OCAMPO CHAVEZ,-5.974915,-77.026292,,0
901,2305,377,COMPLEJO DEPORTIVO DE CAHUACHO,-15.502554,-73.479919,,0
902,2306,424,PLAZA PRINCIPAL IQUIPI-RIO GRANDE,-15.9401358,-73.1308716,,0
903,2307,1631,IEI. N° 324 Villa del Lago - Puno,-15.8624365,-70.0141761,MINSA,0
904,2308,1678,P.S. PACCO RIZALASO,-16.18321597,-69.61661821,MINSA,0
905,2309,841,IPRESS - P.S. LIRCAYCCASA,-12.9753906,-74.5787879,MINSA,0
906,2310,1678,P.S. CHURO LOPEZ,-16.2413608,-69.63672852,MINSA,0
907,2311,841,CASA COMUNAL JATUNSUYUY - CONGALLA,-12.9545072,-74.4915954,MINSA,0
908,2312,841,CASA COMUNAL CCENUACANCHA - CONGALLA,-12.9545072,-74.4915954,MINSA,0
909,2313,1636,PUESTO DE SALUD TACASAYA,-15.827802,-69.838959,MINSA,0
910,2314,662,"Institución Educativa ""María Auristela Sánchez Quiroz""",-7.0013661,-78.8522872,,0
911,2315,662,"Institución Educativa ""Manuel Sánchez Díaz""",-7.0014805,-78.8518891,,0
912,3510,449,I.E.P.38024,-13.39095649,-73.91551073,,0
913,3511,448,I.E. RICARDO BAUTISTA RIVERA - SACHABAMBA,-13.46685654,-74.10001073,,0
914,3512,451,I.E. SUSO,-13.09019684,-74.12615593,,0
915,3513,459,I.E. LAS MERCEDES,-13.16151789,-74.210495,,0
916,3514,445,I.E.P. PAMPAMARCA,-13.24543616,-74.03202574,,0
917,3515,457,I.E. 38603 SAN JUAN DE  CCULLUHUANCCA,-13.17571458,-74.41765709,,0
918,3516,454,I.E. LARAMATE,-13.02858976,-74.37960267,,0
919,3517,454,I.E. INCA GARCILAZO DE LA VEGA -ATACOCHA,-13.04863139,-74.33065216,,0
920,3518,457,I.E. OPANCCA - ÑAUPALLACCA,-13.17736681,-74.3753,,0
921,3519,448,I.E. 38035 CHIARA,-13.27243554,-74.20537854,,0
922,3520,446,I.E. URPAY,-13.14164825,-74.08137685,,0
923,3521,446,I.E. P. MARISCAL GUILLERMO MILLER,-13.11251889,-74.10176258,,0
924,3522,444,IIEE MARISCAL CACERES,-13.14965501,-74.22383727,,0
925,3523,453,JOSE ABELARDO QUIÑONES,-13.17448236,-74.20981837,,0
926,3524,451,I.E. LIBERTAD DE AMERICA DE QUINUA,-13.05302494,-74.14072146,,0
927,3525,449,I.E.P. CCACCAMARCA,-13.4496774,-73.95522146,,0
928,3526,445,I.E.P.CCOLLCCA,-13.30929105,-73.97271538,,0
929,3527,447,I.E. ABRAHAN VALDELOMAR,-13.18036214,-74.220838,,0
930,3528,457,I.E. MILLPO,-13.39931361,-74.42269744,,0
931,3529,145,LOCAL MUNICIPAL DE BAMBAS,-8.602367357,-77.99717241,MINSA,0
932,3530,457,CASA COMUNAL - ROSASPATA,-13.35381401,-74.33356501,,0
933,3531,455,CASA COMUNAL DE SOCOS,-13.22191461,-74.31248927,,0
934,3532,452,CASA COMUNAL RUMIHUASI,-13.14005835,-74.37031943,,0
935,3533,454,CASA COMUNAL SAN PEDRO DE CACHI,-13.08432902,-74.39374258,,0
936,3534,455,CASA COMUNAL SAN RAFAEL,-13.18211654,-74.31085373,,0
937,3535,455,CASA COMUNAL SANTA ROSA DE COCHABAMBA,-13.16514938,-74.29554501,,0
938,3536,452,CASA COMUNLA BELLAVISTA,-13.1518636,-74.30194581,,0
939,3537,458,I.E. SEÑOR DE LOS MILAGROS,-13.15643591,-74.216172,,0
940,3538,446,I.E. HUAYCHAO,-13.16994529,-74.03843196,,0
941,3539,445,I.E.P. CORONEL SANTIAGO MARCELINO,-13.28442884,-74.04070779,,0
942,3540,445,I.E.P. SECCELAMBRAS,-13.25878457,-74.07595013,,0
943,3541,457,I.E. JOSE OLAYA BALANDRA - PUTACCA,-13.40285213,-74.3492,,0
944,3542,444,CASE MUNICIPALIDAD DE HUAMANGA,-13.14983101,-74.22755373,,0
945,3543,146,I.E  JORGE BASADRE  GROHMANN - CUSCA,-8.513531775,-77.86378541,MINSA,0
946,3544,147,I.E SANTIAGO ANTUNEZ DE MAYOLO - LA PAMPA,-8.660666344,-77.90168351,MINSA,0
947,3545,448,I.E. EFRAIN MOROTE BEET - ALLPACHACA,-13.39170431,-74.26572146,,0
948,3546,450,I.E.P. LA COMPANIA 38343,-13.06921474,-74.25504882,,0
949,3547,457,ANTIGUO ESTABLECIMIENTO DE SALUD,-13.20724925,-74.40735368,,0
950,3548,457,I.E. PABLO VALERIANO - CCOÑANI,-13.2631262,-74.48136988,,0
951,3549,457,VICTOR RAUL HALLA DE LA TORRE,-13.31435524,-74.33963832,,0
952,3550,449,I.E. SANTA ISABEL DE CHUMBES,-13.42832521,-73.90427854,,0
953,3551,456,I.E.P. GUAYACONDO,-13.16182502,-74.1708,,0
954,3552,451,I.E. NUESTRA SEÑORA DEL CARMEN - LLAMAHUILCA,-13.05414584,-74.1686,,0
955,3553,149,LOCAL MUNICIPAL DE  YUPAN,-8.615357521,-77.96903069,MINSA,0
956,3554,878,I.E. 38835/MX-U CCARHUACCPAMPA,-13.37774926,-74.9381968,,0
957,3555,465,I.E..MOISES BELTRAN ALDELSUR - CHUYMAY,-13.57856424,-74.44545841,,0
958,3556,554,I.E..P. 38535 MIXTO PUBLICA COCAS,-13.60698771,-74.474488,,0
959,3557,465,I.E.. ANDRES AVELINO CACERES - QUIÑASI,-13.57669606,-74.4699921,,0
960,3558,464,I.E. SANTOS PALMARES - TONSULLA,-13.33435585,-74.59746805,,0
961,3559,465,I.E. JUAN PABLO VISCARDO Y GUZMAN,-13.56759402,-74.52231073,,0
962,3560,554,I.E. SAN RAMON - VILCANCHOS,-13.6237462,-74.53717854,,0
963,3561,554,CASA COMUNAL DE CRUZ PAMPA,-13.61909187,-74.73990383,,0
964,3562,464,CASA COMUNAL IGLESIAHAUSI,-13.5357534,-74.74769158,,0
965,3563,464,FELIPE PARDO Y  ALIAGA,-13.55113573,-74.63082146,,0
966,3564,461,I.E 7 DE JUNIO,-13.45333566,-74.38376781,,0
967,3565,461,I.E. VALENTIN PAÑAGUA - PUNKUPATA,-13.46588213,-74.39978208,,0
968,3566,464,I.E. INDEPENDENCIA AMERICANA LICAPA,-13.35721003,-74.85783551,,0
969,3567,461,I.E. CUCHUQUESERA,-13.4494928,-74.32939809,,0
970,3568,1559,LOZA DEPORTIVA CHASS,-10.5757889,-75.4098005,MINSA,0
971,3569,464,I.E. SAN MARCOS,-13.55809401,-74.73388927,,0
972,3570,554,I.E. SAN JACITO DE ESPITE,-13.58949404,-74.6121,,0
973,3571,1079,C.E. Jeronimo Jimenez,-11.0556814,-75.3270788,MINSA,0
974,3572,1281,Visita Domiciliaria,-12.0494498,-77.0377599,,0
975,3573,113,IE. 86216 SAN MIGUEL - AQUIA - MR. CHIQUIAN,-10.07263491,-77.14200348,MINSA,0
976,3574,113,LOCAL COMUNAL RACRACHACA - AQUIA - MR. CHIQUIAN,-10.04403358,-77.13049739,MINSA,0
977,3575,113,IE. 86220 SAGRADO CORAZON DE JESUS - PACHAPAQUI - AQUIA - MR. CHIQUIAN,-9.962643678,-77.09719239,MINSA,0
978,3576,1561,COLISEO MUNICIPAL PALCAZU,-10.1856613,-75.1481913,,0
979,3577,118,IE. 86223 SATA MARIA - HUASTA - MR. CHIQUIAN,-10.12598394,-77.14806796,MINSA,0
980,3578,118,IE. 86253 CELSO GARRO VALDERRAMA - PAMPAN - HUASTA - MR. CHIQUIAN,-10.11977543,-77.15744474,MINSA,0
981,3579,118,LOCAL COMUNAL - QUERO - HUASTA - MR. CHIQUIAN,-10.1493141,-77.05952814,MINSA,0
982,3580,118,IE. VIRGEN PEREGRINA - POCPA - HUASTA - MR. CHIQUIAN,-10.19314016,-77.00316271,MINSA,0
983,3581,140,LOCAL COMUNAL DE CUNCA,-9.339205,-78.1256194,,0
984,3582,140,LOCAL COMUNAL DE YANACACA GRANDE,-9.339205,-78.1256194,,0
985,3583,140,IE 88137 FRANCISCO BOLOGNESI,-9.3392059,-78.1256193,,0
986,3584,139,IE MARISCAL LUZURIAGA,-9.4740972,-78.294416,MINSA,0
987,3585,139,IE SANTA ISABEL DE HUNGRIA,-9.4698815,-78.3038368,MINSA,0
988,3586,139,COLEGIO PABLO SEXTO,-9.4593738,-78.2965998,MINSA,0
989,3587,139,COMPLEJO MUNICIPAL DEPORTIVO CASMA,-9.4740505,-78.3018764,MINSA,0
990,3588,139,ASILO SAN JOSÉ,-9.4686879,-78.3154982,MINSA,0
991,3589,228,IE SANTO DOMINGO,-9.1404304,-78.1819441,MINSA,0
992,3590,181,CESAR EGUSQUIZA DURAND Nº 84025,-8.8639537,-77.3623123,,0
993,3591,185,PUESTO DE SALUD LLAMA,-8.9146292,-77.2979782,,0
994,3592,181,PLAZA DE ARMAS DE PISCOBAMBA,-8.8513671,-77.3439283,,0
995,3593,1765,I.E 0198,-6.238625,-76.78023,,0
996,3594,287,CHALHUANCA,-14.294808,-73.2471988,,0
997,3595,181,PUESTO DE SALUD SOCOSBAMBA,-8.8884747,-77.3625903,,0
998,3596,184,PUESTO DE SALUD SANACHGAN,-8.80591,-77.281409,,0
999,3597,514,PLAZA DE ARMAS DE CORACORA,-15.016992,-73.780972,,0
1000,3598,1652,P. S. Llallahua-santiago-azangaro-puno,-15.06490384,-70.31484789,,0
1001,3599,181,PLAZA DE ARMAS  DE MUSGA,-8.8667621,-77.3597194,,0
1002,3600,402,TAMBO DE CHICHAS,-15.40017,-71.29103,,0
1003,3601,413,LOCAL SOCIAL,-15.3123144,-71.6111028,,0
1004,3602,416,LOCAL RANRAN,-15.5294919,-71.5515795,,0
1005,3603,421,C.S. CAYARANI,-14.6713942,-72.0218671,,0
1006,3604,421,P.S. ARCATA,-15.0413874,-72.2755151,,0
1007,3605,388,P.S. TOLCONI,-15.1482182,-72.0730279,,0
1008,3606,188,complejo deportivo de la municipalidad de musga,-8.8997984,-77.3381855,,0
1009,3607,183,CAMPO DEPORTIVO DE PAMPACHACRA,-8.9013875,-77.2461263,,0
1010,3608,183,CAMPO DEPORTIVO DE PUMPA,-8.9010381,-77.2175223,,0
1011,3609,186,CAMPO DEPORTIVO LLUMPA,-8.9634202,-77.4587239,,0
1012,3610,117,PUESTO SATELITE HUANCAYOC - HUALLANCA,-9.868101547,-76.88098405,MINSA,0
1013,3611,1390,P.S HUANCHAC,-12.1451159,-76.2126658,MINSA,0
1014,3612,1395,P.S SANGALLAYA,-12.1609511,-76.2290777,MINSA,0
1015,3613,1395,P.S HUANCATA,-12.18492,-76.24044,MINSA,0
1016,3614,1395,P.S QUIRIPA,-12.15798,-76.23982,MINSA,0
1017,3615,1395,LOZA DEPORTIVA ALLOCA,-12.2754488,-76.2578112,MINSA,0
1018,3616,1378,C.S HUAROCHIRI,-12.1371763,-76.2325145,MINSA,0
1019,3617,1389,P.S TANTARANCHE,-12.1135714,-76.1824254,MINSA,0
1020,3618,1389,C.S CARHUAPAMPA,-12.03894,-76.11976,MINSA,0
1021,3619,1394,P.S SAN PEDRO DE HUANCAYRE,-12.1170217,-76.2164982,MINSA,0
1022,3620,1398,P.S ANCHUCAYA,-12.0954667,-76.23014,MINSA,0
1023,3621,1390,PUESTO DE SALUD QUINTI,-12.1451159,-76.2126658,MINSA,0
1024,3622,1371,PUESTO DE SALUD ANTIOQUIA,-12.08002,-76.50913,MINSA,0
1025,3623,1751,I.E. 0687 José Alberto Quiñonez Gonzales - Comunidad Nativa Dos de Mayo,-6.806079801,-76.54388433,,0
1026,100001,1453,"HOSPITAL IQUITOS ""CESAR GARAYAR GARCIA""",-3.762818,-73.253653,,1
1027,100002,1463,CENTRO REHABILITACION ENFERMO MENTAL,-3.73189,-73.32325,,2
1028,100003,1460,"HOSPITAL REGIONAL DE LORETO ""FELIPE SANTIAGO ARRIOLA IGLESIAS""",-3.72696048,-73.25341698,,3
1029,100004,1454,C.S. I-3 SANTA MARIA DE NANAY,-3.88899772,-73.69678536,,4
1030,100005,1454,SAMITO,-3.86516692,-73.61092844,,5
1031,100006,1454,DIAMANTE AZUL,-3.9013143,-73.77967025,,6
1032,100007,1453,"I-4 CENTRO DE SALUD MORONA COCHA ""JORGE AREVALO MELHO""",-3.75344,-73.35446,,7
1033,100008,1453,TUPAC AMARU DE IQUITOS,-3.77097,-73.3622,,8
1034,100009,1453,SAN ANTONIO DE IQUITOS,-3.77439,-73.37176,,9
1035,100010,1453,1RO. DE ENERO,-3.78054,-73.35469,,10
1036,100011,1453,VARGAS GUERRA,-3.78329,-73.3462,,11
1037,100012,1453,MANACAMIRI,-3.71951,-73.28273,,12
1038,100013,1453,P.S I-2 MAYNAS,-3.80507,-73.40499,,13
1039,100014,1453,FERNANDO LORES,-3.83055,-73.46231,,14
1040,100015,1453,P.S. I-1 PORVENIR DE IQUITOS,-3.83116,-73.51423,,15
1041,100016,1460,BELLAVISTA NANAY,-3.4753,-73.3468,,16
1042,100017,1460,P.S. PADRE COCHA,-3.69383,-73.27162,,17
1043,100018,1460,BARRIO FLORIDO,-3.62524,-73.19999,,18
1044,100019,1460,SANTA MARIA DEL OJEAL,-3.60286,-73.16687,,19
1045,100020,1460,SANTA CLARA DEL OJEAL,-3.62543,-73.19058,,20
1046,100021,1460,SARGENTO LORES,-3.50736,-73.41136,,21
1047,100022,1460,PICURO YACU,-3.63336,-73.22465,,22
1048,100023,1462,C.S. I-3 9 DE OCTUBRE,-3.76457022,-73.24459961,,23
1049,100024,1462,CARDOZO,-3.77469658,-73.27373847,,24
1050,100025,1463,SAN JUAN DE MIRAFLORES,-3.77442,-73.28655,,25
1051,100026,1463,PROGRESO DE SAN JUAN BAUTISTA,-3.774418,-73.287,,26
1052,100027,1463,AMERICA DE SAN JUAN BAUTISTA,-3.78788195,-73.29931008,,27
1053,100028,1463,RUMOCOCHA,-3.77936771,-73.31303996,,28
1054,100029,1463,SANTA CLARA DE NANAY,-3.78567154,-73.33914568,,29
1055,100030,1463,SANTO TOMAS DE SAN JUAN DE BAUTISTA,-3.80086987,-73.33900617,,30
1056,100031,1463,ZUNGAROCOCHA,-3.82961,-73.35632,,31
1057,100032,1463,QUISTOCOCHA,-3.82305624,-73.32605561,,32
1058,100033,1463,"ASOCIACION DE COMUNIDAD LOCAL DE ADMINISTRACION DE SALUD ""EL PAUJIL""",-4.04314539,-73.43853954,,33
1059,100034,1463,MORALILLO,-3.88045,-73.34759,,34
1060,100035,1463,P.S. I-1 VARILLAL,-3.88923015,-73.35122673,,35
1061,100036,1463,SAN PABLO DE CUYANA,-3.84573,-73.38793,,36
1062,100037,1455,TAMSHIYACU,-4.003332,-73.157948,,37
1063,100038,1455,SANTA ANA DE MUYUY,-3.92383,-73.2136,,38
1064,100039,1455,DOS DE MAYO DE FERNANDO LORES,-3.92339,-73.26142,,39
1065,100040,1455,AUCAYO,-3.858847,-73.155932,,40
1066,100041,1455,ESPERANZA TAHUAYO,-4.210405,-73.203208,,41
1067,100042,1455,MANGUA DE FERNANDO LORES,-4.14895,-73.27271,,42
1068,100043,1455,NUEVO PROGRESO,-3.7700696,-73.2625513,,43
1069,100044,1455,II SAN JORGE,0.0,0.0,,44
1070,100045,1455,YACAPANA I ZONA,-4.171474,-73.331911,,45
1071,100046,1455,NUEVO VALENTIN,-4.13447,-73.155831,,46
1072,100047,1455,SAN SALVADOR DE OMAGUAS,-4.174686,-73.378128,,47
1073,100048,1462,MUNICHS - RIO ITAYA,-3.7846151,-73.2560796,,48
1074,100049,1462,SAN ANTONIO - RIO ITAYA,-3.77332,-73.16178,,49
1075,100050,1453,CABO PANTOJA - RÍO AMAZONAS,-3.68279,-73.1414,,50
1076,100051,1462,6 DE OCTUBRE,-3.76457022,-73.24459961,,51
1077,100052,1462,SOLEDAD DE VILLA BELEN,-3.62485,-73.13383,,52
1078,100053,1489,ANGAMOS,-5.14818528,-72.87507715,,53
1079,100054,1456,INDIANA,-3.49955556,-73.03855748,,54
1080,100055,1456,MANITI I ZONA,-3.52020048,-72.83957499,,55
1081,100056,1456,SANTA CECILIA,-3.60829568,-72.95728417,,56
1082,100057,1456,YANAYACU BOMBONAJE,-3.65124478,-73.10757498,,57
1083,100058,1456,VAINILLA,-3.5107952,-72.70910609,,58
1084,100059,1456,SINCHICUY,-3.58710493,-73.13631239,,59
1085,100060,1457,FRANCISCO DE ORELLANA,-3.4216635,-72.76548514,,60
1086,100061,1457,SANTA MARIA DE MARUPA,-3.48690341,-72.64943578,,61
1087,100062,1457,ORAN,-3.47914636,-72.50816035,,62
1088,100063,1457,YANASHI,-3.58767345,-72.25568419,,63
1089,100064,1458,IPRESS I-3 MAZAN,-3.49795605,-73.09167713,,64
1090,100065,1458,TAMANCO,-3.31561138,-72.98970328,,65
1091,100066,1459,HOSPITAL II-1 SANTA CLOTILDE,-2.48939688,-73.67675328,,66
1092,100067,1459,P.S. I-1 NUEVA LIBERTAD O TUTAPISHCO,-3.10986745,-73.13872479,,67
1093,100068,1459,NEGRO URCO,-3.02047039,-73.39085124,,68
1094,100069,1459,TACSHA CURARAY,-2.81318551,-73.54074886,,69
1095,100070,1461,CAMPO SERIO,-1.79398104,-74.70617865,,70
1096,100071,1461,ANGOTEROS,-1.56863131,-74.61051508,,71
1097,100072,1461,TEMPESTAD,-1.28226111,-74.88385358,,72
1098,100073,1461,II  VENCEDORES,0.0,0.0,,73
1099,100074,1461,P.S. I-2 MCABO PANTOJA DE TORRES CAUSANA,-0.97041934,-75.17465847,,74
1100,100075,1461,TORRES CAUSANA,-1.10448905,-75.00459122,,75
1101,100076,1475,SAN ANTONIO DE CACAO,-3.81342833,-70.32153667,,76
1102,100077,1502,C.S. I-3 EL ESTRECHO,-2.44966707,-72.67166532,,77
1103,100078,1505,EL ALAMO,-2.84244359,-70.10894079,,78
1104,100079,1505,P.S. I-1 HUAPAPA,-2.50728174,-70.42093314,,79
1105,100080,1505,REMANSO,-2.37949,-71.29803,,80
1106,100081,1505,BETANIA,-2.39395,-71.42941,,81
1107,100082,1502,LA FLORIDA,-0.3754476,-74.6671961,,82
1108,100083,1502,SAN PEDRO DE TOTOYA,-2.46567,-72.1713,,83
1109,100084,1502,FLOR DE AGOSTO,-2.36563,-73.02529,,84
1110,100085,1503,IPRESS I-1 SAN FRANCISCO DE ERE,-0.3754476,-74.6671961,,85
1111,434,1619,Ie La Inmaculada,-4.58812912,-81.27304818,ESSALUD,0
1112,435,1619,Iglesia La Inmaculada,-4.58038055,-81.27192471,MINSA,0
1113,436,1619,Puesto De Salud Felipe Santiago Salaverry,-4.58890437,-81.17539807,MINSA,0
1114,437,313,Estadio Erapampa-Pumachuco,-13.33103281,-73.74204707,DIRESA,0
1115,438,313,Iep Andres Avelino Caseres - Sauri,-13.355049,-73.674705,DIRESA,0
1116,439,313,Iep Cesar Vallejo - Pomachuco,-13.334384,-73.737119,DIRESA,0
1117,440,313,Plaza De Huarapari,-13.355125,-73.674054,DIRESA,0
1118,441,1819,Iee Don Jose De San Martin,-17.9898229,-70.2421332,DIRESA,0
1119,442,1825,I.E Manuel Flores Calvo,-17.9943002,-70.2183698,DIRESA,0
1120,443,1818,Ie Cristo Rey,-18.0315645,-70.2687728,DIRESA,0
1121,444,1818,Iee Coronel Bolognesi,-18.0052828,-70.2510685,ESSALUD,0
1122,445,22,Colegio La Inmaculada,-5.6389831,-78.5294067,MINSA,0
1123,446,41,El Tambo - Midis,-4.3829,-78.3088,MINSA,0
1124,447,41,Local Comunal,-4.1891,-78.2771,MINSA,0
1125,448,42,El Tambo - Midis,-3.5249,-77.7716,MINSA,0
1126,449,42,CANDUNGOS,-3.4029,-77.8431,MINSA,0
1127,450,42,Local Comunal,-3.9822,-78.1162,MINSA,0
1128,451,42,Local Comunal,-4.057588,-77.7674896,MINSA,0
1129,452,66,Polideportivo De La I.E.E. 18207- San Nicolas,-6.39509801,-77.48491462,DIRESA,0
1130,453,78,C.S Alto Perú,-5.90782105,-78.44785281,MINSA,0
1131,454,78,I.E. 16596 - Nuñya Jalca,-5.8956467,-78.3096018,MINSA,0
1132,455,78,I.E. Leoncio Prado - Collicate,-5.881678,-78.4488687,DIRESA,0
1133,456,78,Ii.Ee Miraflores,-5.8594293,-78.3683355,DIRESA,0
1134,457,79,C.S Alto Amazonas,-5.7227442,-78.28330747,DIRESA,0
1135,458,79,Coliseo De Cajaruro,-5.7324587,-78.4276132,DIRESA,0
1136,459,79,I.E.Pedro Ruiz Gallo - Naranjitos,-5.7522328,-78.4273241,DIRESA,0
1137,460,79,Ii.Ee San Cristobal,-5.7370258,-78.4257048,MINSA,0
1138,461,79,Ii.Ee. El Ron,-5.754629,-78.255357,MINSA,0
1139,462,80,I.E. Cesar Abraham Vallejos Mendoza Cumba,-5.9358136,-78.6645672,DIRESA,0
1140,463,84,I.E. El Palto,-6.0131227,-78.4941082,DIRESA,0
1141,464,80,Institución Educativa - Nueva Esperanza,-5.9264233,-78.5254767,DIRESA,0
1142,465,81,Loza Deportiva - El Milagro,-5.6374216,-78.5623594,DIRESA,0
1143,466,82,Ricardo Palma Soriano - Jamalca,-5.8631176,-78.2584898,DIRESA,0
1144,467,83,C.S Lonya Grande,-6.09625678,-78.42137991,DIRESA,0
1145,468,84,Mini Complejo Deportivo - Vista Alegre De Yamon,-5.999551,-78.5374209,MINSA,0
1146,469,337,Complejo Cervantes Laguna,-16.37645866,-71.54470192,DIRESA,0
1147,470,337,Iiee Dean Valdivia,-16.33789303,-71.55256807,DIRESA,0
1148,471,337,Iiee Felix Rivas,-16.33070982,-71.53732361,DIRESA,0
1149,472,337,Iiee Francisco Bolognesi,-16.35099859,-71.54327314,DIRESA,0
1150,473,338,Iiee Manuel Gallegos Sanz,-16.34796161,-71.55518352,DIRESA,0
1151,474,337,Iiee Peruano Del Milenio,-16.35265471,-71.5499512,DIRESA,0
1152,475,343,Colegio Mandil Azul,-16.40285855,-71.49542524,ESSALUD,0
1153,476,343,Coliseo Municipal Del Niño,-16.40278201,-71.51174259,ESSALUD,0
1154,477,343,Ie 40139 Andres Avelino Caceres,-16.40165587,-71.48889109,ESSALUD,0
1155,478,343,Loza Deportiva La Rinconada,-16.39856632,-71.49402453,ESSALUD,0
1156,479,343,Madre Del Divino Amor,-16.40399421,-71.50963632,ESSALUD,0
1157,480,344,Coliseo Coperativa 14,-16.38695857,-71.51272992,ESSALUD,0
1158,481,344,Piscina De La Familia Miraflorina,-16.38047522,-71.50900045,ESSALUD,0
1159,482,344,Plaza Del Porvenir,-16.37445041,-71.50436688,ESSALUD,0
1160,483,344,Plaza Mayta Capac,-16.39454294,-71.52209738,ESSALUD,0
1161,484,356,Ii Ee La Campiña (4 De Octubre Y Lara),-16.45685754,-71.51788142,DIRESA,0
1162,485,356,Iiee La Pampa - Corazon De Jesus,-16.48748885,-71.51925344,DIRESA,0
1163,486,356,Villa Olimpica Socabaya Al Lado De La Piscina,-16.44315308,-71.53183098,DIRESA,0
1164,491,811,C.S. Acoria,-12.64286127,-74.86302086,MINSA,0
1165,492,811,C.S. Añancusi,-12.58608712,-74.71412875,MINSA,0
1166,493,811,P.S. Chupaca,-12.52261097,-74.83091216,MINSA,0
1167,503,1064,"Coliseo Municipal ""ex Plaza De Toros""",-11.92330767,-75.31073814,MINSA,0
1168,504,1050,Colegio De Warivilca,-12.13628804,-75.22288016,MINSA,0
1169,505,1053,I.E. Primaria Nuestra Señora De Las Mercedes No.30090,-12.05379636,-75.25365892,MINSA,0
1170,506,1060,Estadio Luis Abad,-12.14369393,-75.16091264,MINSA,0
1171,507,1061,Plaza De Toros De Sicaya,-12.01650013,-75.28246434,MINSA,0
1172,508,1119,I.E. 6 De Agosto,-11.163031,-75.99149,MINSA,0
1173,509,1119,I.E. La Victoria De Junin,-11.1568,-75.9991,MINSA,0
1174,510,1128,Centro De Salud San Ramon De Pangoa,-11.432571,-74.48057722,MINSA,0
1175,511,1128,Hospital San Martin De Pangoa,-11.428196,-74.49100612,MINSA,0
1176,512,1132,Colegio Integrado Santa Teresa,-11.4226648,-75.6955393,ESSALUD,0
1177,513,1132,I.E. Jose Galvez Barrenechea,-11.421642,-75.69023,MINSA,0
1178,514,1132,I.E.E San Ramon,-11.4089029,-75.68618742,MINSA,0
1179,515,1745,Coliseo Quillotucto,-6.128719,-77.09733,DIRESA,0
1180,516,1790,I.E. 00621,-6.06134558,-77.16685703,MINSA,0
1181,517,1814,I.E. N° 0466,-8.45328763,-76.32590955,DIRESA,0
1182,518,1817,I.E. Jose Galvez Barrenechea,-8.45201073,-76.46213879,DIRESA,0
1183,519,1303,Complejo Deportivo Del Secto B De Manchay,-12.11672032,-76.87402486,MINSA,0
1184,520,1285,Colegio Salesiano San Francisco De Sales,-12.06201357,-77.04361846,MINSA,0
1185,521,1312,6. Universidad César Vallejo - Sede Sjl,-11.98137745,-77.00023088,MINSA,0
1186,522,705,Acomayo,-13.92317381,-71.67890616,DIRESA,0
1187,523,709,Pomacanchi,-14.03462104,-71.57104952,DIRESA,0
1188,524,740,Ie N°56465 Llaquepata,-14.3575,-71.16959,MINSA,0
1189,525,737,Colegio Pumacahua,-14.26505279,-71.22603405,MINSA,0
1190,526,737,I.E. 56021 Rosaspata,-14.27783242,-71.22421778,MINSA,0
1191,527,738,I.E. Almirante Miguel Grau Checacupe,-14.027808,-71.45365,MINSA,0
1192,528,739,Ie N° 56044 Glorioso 793 Combapata,-14.10082266,-71.4307495,MINSA,0
1193,529,776,Accha,-13.97099958,-71.83146452,DIRESA,0
1194,530,775,Paruro,-13.76444858,-71.84335304,DIRESA,0
1195,531,783,Yaurisque,-13.66527079,-71.92058824,DIRESA,0
1196,532,786,Challabamba,-13.21179477,-71.64985845,DIRESA,0
1197,533,787,Colquepata,-13.36011074,-71.67348015,DIRESA,0
1198,534,788,Huancarani,-13.50355865,-71.65508974,DIRESA,0
1199,535,784,Paucartambo,-13.32207483,-71.59185856,DIRESA,0
1200,536,794,Ccatcca,-13.63935368,-71.5144002,DIRESA,0
1201,537,799,Ocongate,-13.62774176,-71.38709752,DIRESA,0
1202,538,800,Oropesa,-13.5952675,-71.767276,DIRESA,0
1203,539,801,Quiquijana,-13.82201657,-71.54274979,DIRESA,0
1204,540,790,Urcos,-13.68351011,-71.62475671,DIRESA,0
1205,541,1326,I.E Nº 21577 Ex Escuela De Varones,-10.676396,-77.81516,MINSA,0
1206,542,1326,I.E. 21578 Ex Escuela De Mujeres,-10.67501,-77.81886,MINSA,0
1207,543,1328,I.E  20520,-10.799957,-77.71101,MINSA,0
1208,544,1328,I.E. Francisco Vidal Laos,-10.793968,-77.71312,MINSA,0
1209,545,1348,Estadio Oscar Ramos Cabieses,-13.03094,-76.36225,MINSA,0
1210,546,1342,Estadio Roberto Yañez,-13.08346,-76.38431,MINSA,0
1211,547,1362,Estadio   Romulo Shaw Cisneros,-11.56356,-77.27268,DIRESA LIMA,0
1212,548,1362,Ie Inei N°34,-11.56084,-77.26904,DIRESA LIMA,0
1213,549,1362,Instituto De Educacion Superior Tecnologico Publico De Chancay,-11.56084,-77.27033,MINSA,0
1214,550,1312,Estadio Monumental Anexo 22 San Antonio,-11.921603,-76.955551,MINSA,0
1215,551,1298,Explanada De Vacunacion  Del Establecimiento De Salud Sagrado Corazon De Jesus,-12.00721233,-76.95577008,MINSA,0
1216,552,1312,I.E Niños Del Paraiso,-12.00277168,-76.98754835,MINSA,0
1217,553,1312,I.E. ANTENOR ORREGO UGARTE,-11.87897935,-76.95216494,MINSA,0
1218,554,1298,Loza Deportiva Valle Triunfo,-11.98535856,-76.94972662,MINSA,0
1219,556,1859,Centro De Salud Nuevo Paraiso,-8.37292008,-74.55112781,,0
1220,930,954,Local Comunal Venenillo,-9.08957,-76.0949,,0
1221,931,963,Colegio I.E. Nª 32496 - Anda,-9.05839,-76.0758,,0
1222,932,965,I.E. Ciro Alegria Bazan,-8.65614,-76.8755,,0
1223,933,965,I.E. Jose Antonio Encinas.F. Paraiso,-8.48394,-76.3856,,0
1224,934,964,Estadio De Mayobamba,-8.60595,-77.1976,,0
1225,935,966,Local Municipal De San Buenaventura,-8.76892,-77.1884,,0
1226,936,968,Local Comunal Santa Rosa De Alto Yanajanca,-8.65411,-76.3159,,0
1227,937,1691,I.E.P. Simon Bolivar Palacios 871,-15.3634,-70.3636,MINSA,0
1228,938,1008,Complejo Deportivo De Alto Laran,-13.44160972,-76.08487752,DIRESA,0
1229,939,1013,"Colegio San Antonio De Padua ""22256""",-13.40501007,-76.1300196,C.S. PUEBLO NUEVO,0
1230,940,1026,Salon Comunal De San Francisco,-14.50462964,-75.25446877,P.S. SANTA CRUZ,0
1231,941,1033,Complejo Deportivo Ernesto Fuentes Pacheco,-13.73249937,-76.22114597,C.S. SAN ANDRES,0
1232,942,1531,Plaza De Armas De Quinistaquillas,-16.749275,-70.880412,MINSA,0
1233,943,1533,I.E. Andres Avelino Caceres S/N,-16.19405,-70.6806,MINSA,0
1234,944,1520,Coliseo Miguel Zeballos Malaga,-17.1825,-70.89829,,0
1235,945,1520,I.S.T. Jose Carlos Mariategui,-17.18358,-70.90417,MINSA,0
1236,946,1517,C.S. Mental Comunitario Moquegua,-17.204822,-70.950704,,0
1237,947,1517,C.S. Mental Mariano Lino Urquieta,-17.211395,-70.947442,,0
1238,1621,1300,HOSPITAL MILITAR,-12.0874204,-77.0627227,,0
1239,1622,1701,"I.E.P. N° 71011 ""SAN LUIS GONZAGA"" AYAVIRI",-14.8842942,-70.5889612,,0
1240,1623,1808,Universidad Nacional San Martin (Ciudad Universitaria),-6.484709856,-76.37796288,,0
1241,1624,305,C.S. COTABAMBAS - COTABAMBAS,-13.73294597,-72.39087261,,0
1242,1625,1646,ESTADIO POLIDEPORTIVO MUNICIPAL DE AZÁNGARO,-14.90586305,-70.19643712,MINSA,0
1243,1626,1646,I.E.S. Nº 73001MANHATTAN SCHOOL - AZANGARO - AZANGARO,-14.9120862,-70.20195611,MINSA,0
1244,1627,1706,COLISEO MUNICIPAL DE NUÑOA,-14.45940383,-70.6496562,,0
1245,1628,1635,IES. JOSE CARLOS MARIATEGUI - CAPACHICA,-15.6456,-69.8328,MINSA,0
1246,1629,304,CASA CULTURAL TAMBOBAMBA,-13.94678985,-72.17494053,,0
1247,1630,1654,C.S. POTONI 00003142,-14.3916694,-70.10521092,,0
1248,1631,1654,P.S. CARLOS GUTIERREZ 00003143,-14.31387577,-70.18331416,,0
1249,1632,1692,Institucion de Educacion Primaria Nro 70431 San Martin de Porres Cabanilla,-15.6215541,-70.3456029,MINSA,0
1250,1633,1658,I.E.P. Nº 72039  SAN JUAN DE SALINAS,-14.9864706,-70.11371511,,0
1251,1634,355,P.S. Santa Rita De Siguas,-16.48851687,-72.09384107,,0
1252,1635,359,P.S. Yuramayo,-16.44898966,-71.92134488,DIRESA,0
1253,1636,359,I.E. Victor Raul Haya De La Torre,-16.46704394,-71.93641288,DIRESA,0
1254,1637,386,I.E. Nuestra Señora Asuncion,-15.501368,-72.354669,,0
1255,1638,426,I.E. Jorge Basadre N/S Yanaquihua,-15.7768353,-72.8783432,,0
1256,1639,434,I.E. Coronel Casimiro Peralta Nro.40510,-15.1344,-72.765,,0
1257,1640,944,I.E. Uldarico Vidal San Martin - Arancay,-9.169799,-76.751297,,0
1258,1641,943,I.E. 32389 Florida,-9.537473,-76.815371,MINSA,0
1259,1642,943,I.E. 32832 Juana Moreno,-9.552233,-76.82607,,0
1260,1643,943,I.E. 32390 Progreso,-9.531641,-76.834291,,0
1261,1644,943,I.E. 32385 Virgen De Fatima,-9.548294,-76.817094,,0
1262,1645,951,I.E. Primaria 32414 - Puños,-9.49936,-76.8895,,0
1263,1646,910,Centro De Salud Amarilis,-9.9380728,-76.2427336,,0
1264,1647,1534,C.S. Mental Comunitario Ilo,-17.652678,-71.336384,,0
1265,1648,1639,Iep 70011 Mañazo,-15.80118,-70.34343,MINSA,0
1266,1649,1641,I.E. Primaria 70091 Laraqueri,-16.1504901,-70.0662749,MINSA,0
1267,1650,1643,Puesto De Salud I-2 Juncal,-16.1394,-70.3449,MINSA,0
1268,1651,1644,I.E. Secundaria San Francisco - Tiquillaca,-15.79545014,-70.18698583,MINSA,0
1269,1652,1701,C.S. CONO NORTE 00003159,-14.8827057,-70.5876866,,0
1270,1653,1666,C.S. CRUCERO 00003147,-14.36310671,-70.02375029,,0
1271,1654,1702,I.E.S. ANTAUTA,-14.29325003,-70.29396728,,0
1272,1656,1646,ESTABLECIMIENTO DE SALUD HANAJQUIA - AZANGARO - PUNO,-14.8892143,-70.1033296,,0
1273,1657,1708,I.E.P. Nª 70502 GENERAL PEDRO VILCAPAZA,-14.59434132,-70.85284209,,0
1274,1658,1656,CENTRO DE SALUD SAN ANTON,-14.39857649,-70.27399732,,0
1275,1660,1700,P.S. VILAVILA,-15.18874783,-70.65881326,,0
1276,1662,1726,SALON COMUNAL LIMBANI,-13.75456001,-69.7469117,,0
1277,1665,1645,INSTITUTO SUPERIOR TECNOLOGICO J.A.E. VILQUE,-15.7662654,-70.2587485,MINSA,0
1278,1670,1664,C.S. COASA 00003144,-13.98953306,-70.01569315,,0
1279,1671,809,COLEGIO DE VARONES SAN CRISTOBAL,-12.7835132,-74.96889,,0
1280,1673,1651,INSTITUCION EDUCATIVA INA 125 CHUPA,-15.10679272,-69.9790292,,0
1281,1677,1646,P.S. YAJCHATA - AZANGARO - PUNO,-14.94294044,-70.0912838,,0
1282,1678,809,C.S. SAN CRISTOBAL,-12.7805044,-74.9710371,,0
1283,1679,826,C.S. ASCENSION,-12.7752111,-74.9975256,,0
1284,1680,839,CENTRO POBLADO CHUCUSPA,-12.9215304,-74.7544717,MINSA,0
1285,1681,837,CENTRO POBLADO RANTAY,-12.9243208,-74.710093,MINSA,0
1286,1682,841,LOCAL COMUNAL TOPCCACCASA - CHAYNABAMBA,-12.9332667,-74.557905,MINSA,0
1287,1683,841,IPRESS - P.S. CHAYNABAMBA,-12.9426103,-74.5388361,MINSA,0
1288,1684,306,C.S COYLLURQUI - COTABAMBAS,-13.83653062,-72.43228016,,0
1289,1685,841,LOCAL COMUNAL ATOCPAMPA- CHAYNABAMBA,-12.944354,-74.5377046,MINSA,0
1290,1686,894,COLISEO CERRADO HUACHOCOLPA,-12.0484639,-74.594108,DIRESA,0
1291,1687,902,PLAZA PRINCIPAL SURCUBAMBA,-12.116237,-74.631323,DIRESA,0
1292,1688,897,PLAZA PRINCIPAL DE PAZOS,-12.2593568,-75.0706046,DIRESA,0
1293,1689,907,ESTADIO MUNICIPAL DE PICHUS,-12.1710875,-74.9252038,DIRESA,0
1294,1690,895,GRAS SINTETICO DE HUARIBAMBA,-12.2795195,-74.938153,DIRESA,0
1295,1691,895,LOZA DEPORTIVA DE HUAYARQUI,-12.2530007,-74.8835454,DIRESA,0
1296,1692,895,PLAZA DE INYAC,-12.2733338,-74.8410776,DIRESA,0
1297,1693,895,I.E. PRIMARIA N°30955 ANTA,-12.271185,-74.962278,DIRESA,0
1298,1694,895,GRAS SINTETICO DE AYACANCHA,-12.2906708,-74.9116576,DIRESA,0
1299,1695,895,PLAZA PRINCIPAL DE TAPO,-12.2631048,-74.9696654,DIRESA,0
1300,1696,848,PLAZA DE ARMA - CASTROVIRREYNA,-13.2833278,-75.3191287,DIRESA,0
1301,1697,900,PLAZA PRINCIPAL DE SALCAHUASI,-12.1026276,-74.7513775,,0
1302,1698,849,PLAZA DE ARMAS - VILLA DE ARMA,-13.1262176,-75.5420606,DIRESA,0
1303,1699,850,PLAZA DE ARMA - AURAHUA,-13.0345825,-75.5702711,DIRESA,0
1304,1700,859,PLAZA DE ARMA - TANTARA,-13.0739576,-75.6447206,DIRESA,0
1305,1701,860,PLAZA DE ARMA - TICRAPO,-13.3816369,-75.4323007,DIRESA,0
1306,1702,854,PLAZA DE ARMA - HUACHOS,-13.24679,-75.534477,DIRESA,0
1307,1703,851,PLAZA DE ARMA - CAPILLA NORTE,-13.293113,-75.5423734,DIRESA,0
1308,1704,856,PLAZA DE ARMA - MOLLEPAMPA,-13.3104654,-75.4098033,DIRESA,0
1309,1705,1508,I.E. HEROES DE ILLAMPU - MAVILA,-11.9335,-69.1164,DIRESA,0
1310,1706,1508,I.E. RAUL VARGAS QUIROZ - ALEGRIA,-12.1192,-69.1198,DIRESA,0
1311,1707,1508,I.E.JORGE CHAVEZ RENGIFO - PLANCHON - LAS PIEDRAS,-12.2791,-69.152,DIRESA,0
1312,1708,1512,COMPLEJO DEPORTIVO MUNICIPAL MDD - BOCA COLORADO,-12.617719,-70.391209,DIRESA,0
1313,1709,1515,I.E. TUPAC AMARU II - IBERIA,-11.411278,-69.489345,DIRESA,0
1314,1710,1640,IES TUPAC AMARU PAUCARCOLLA,-15.74648766,-70.05565936,MINSA,0
1315,1711,1683,I.E.P. Nª 72229 Glorioso Centenario 842,-15.20039273,-69.76317134,,0
1316,1712,1685,I.E.S. JOSE ANTONIO ENCINAS,-14.9989263,-69.8366986,,0
1317,1713,1716,PUESTO DE SALUD PEDRO VILCAPAZA,-15.00791353,-69.95892251,,0
1318,1714,1686,I.E.S. JOSE ANTONIO ENCINAS,-14.97972886,-69.71253988,,0
1319,1715,1690,C.S. VILQUECHICO,-15.21489699,-69.69081828,,0
1320,1716,1690,TAMBO CATAHUI SOLITARIO,-15.21065555,-69.69979831,,0
1321,1717,1688,CENTRO DE SALUD ROSASPATA,-15.23310242,-69.52942845,,0
1322,1718,1710,I.E.S. TECNICO COMERCIAL,-15.35735666,-69.50220724,,0
1323,1719,1712,PLATAFORMA SALON COMUNAL CHUQUEPAILLA,-15.3089357,-69.40717586,,0
1324,1720,1711,CENTRO DE SALUD CONIMA,-15.45835056,-69.43814542,,0
1325,1721,1713,I.E.S. COMERCIAL TILALI,-15.51430853,-69.34895663,,0
1326,2423,1786,I.E N° 0075 EKE PEDRO GIRANO PIRO,-7.001247,-76.44126,,0
1327,2424,1391,COMPLEJO DEPORTIVO SAN MATEO,-11.75722,-76.298115,MINSA,0
1328,2425,1402,UNIVERSIDAD NACIONAL JOSE FAUSTINO SANCHEZ CARRION,-11.1239202,-77.6082465,MINSA,0
1329,2426,1446,LOCAL COMUNAL PILAS,-12.4542842,-76.2267736,DIRESA LIMA,0
1330,2427,1449,IEP 2738 SANTISIMA TRINIDAD NIVEL PRIMARIO,-12.2386412,-75.7459837,,0
1331,2428,1423,PLAZA DE ARMAS AYAVIRI,-12.38883,-76.135468,,0
1332,2429,301,RSAb - P. S. TAQUEBAMBA,-13.89517768,-73.10002785,MINSA,0
1333,2430,1444,IE INICIAL N.598 QUINOCAY,-12.3625094,-76.2272716,,0
1334,2431,1420,IEP SEÑOR DE LOS MILAGROS CATAHUASI,-12.4590619,-75.9182827,,0
1335,2432,1448,P.S TAURIPAMPA,-12.6168399,-76.1627954,DIRESA LIMA,0
1336,2433,1443,P.S QUINCHES,-12.30764,-76.14571,DIRESA LIMA,0
1337,2434,1436,P.S  HUAÑEC,-12.2939846,-76.1385183,,0
1338,2436,253,RSAb - CENTRO POBLADO TAMBO QUESARI (P. S. TAMBURQUI),-13.97211677,-72.88623566,MINSA,0
1339,2437,257,RSAb - LOZA DEPORTIVA AUQUIBAMBA,-13.679593,-72.95318839,MINSA,0
1340,2438,257,RSAb - LOZA DEPORTIVA PICHIRHUA,-13.86017749,-73.07303077,MINSA,0
1341,2439,257,RSAb - I. E. P. Nº 54035 DIVINO NIÑO JESUS COTARMA,-13.78369348,-72.98206794,MINSA,0
1342,2440,589,LOCAL MUNICIPAL,-6.852780253,-78.05592479,,0
1343,2441,257,RSAb - PLAZA DE ARMAS CHALHUANI,-13.82388558,-73.04259452,MINSA,0
1344,2442,257,RSAb - I. E. LUCUCHANGA,-13.75086441,-72.97068764,MINSA,0
1345,2443,323,I. E. AGUSTIN GAMARRA,-13.86911425,-72.50553493,MINSA,0
1346,2444,323,I. S. TUPAC AMARU,-13.80613926,-72.53988241,MINSA,0
1347,2445,1425,PLAZA PRINCIPAL DE CACRA,-12.8123953,-75.7829987,,0
1348,2446,1451,FRONTIS DEL ESTABLECIMIENTO VIÑAC,-12.930823,-75.7803892,DIRESA LIMA,0
1349,2447,1439,COLISEO DEL DISTRITO DE MADEAN,-12.9446615,-75.776756,,0
1350,2448,1428,FRONTIS DE LA MUNICIPALIDAD DE CHOCOS,-12.914381,-75.8628756,DIRESA LIMA,0
1351,2449,1632,P.S. ULLACACHI,-16.17636411,-69.72213888,MINSA,0
1352,2450,1741,I.E. SERAFIN FILOMENO,-6.03265,-76.9616,,0
1353,2451,1438,FRONTIS DEL ESTABLECIMIENTO,-12.7994353,-75.6664252,DIRESA LIMA,0
1354,2452,1431,MUNICIPIO DE HONGOS,-12.7670859,-75.6789905,,0
1355,2453,319,I.E.P.  SAN JUAN BAUTISTA PRIMARIA DE PORVENIR,-13.4019055,-73.5720195,,0
1356,2454,319,LOZA GRAS SINTETICO HUAMBURQUE,-13.3965116,-73.5935501,,0
1357,2455,1083,Colegio Juan Santos Antahualpa,-11.1197182,-75.3593715,MINSA,0
1358,2456,1450,FRONTIS DEL ESTABLECIMIENTO,-12.7414525,-75.8092692,DIRESA LIMA,0
1359,2457,1424,FRONTIS DEL ESTABLECIMIENTO,-12.999372,-75.8377376,DIRESA LIMA,0
1360,2458,1080,Loza Deportiva de la Segunda Meseta,-10.9492011,-75.226615,MINSA,0
1361,2459,1425,PLAZA PRINCIPAL DE CACRA,-12.8123953,-75.7829987,,0
1362,2462,1434,COLISEO DE HUANGASCAR,-12.8990743,-75.8315929,,0
1363,2463,1079,Centro del Adulto Mayor,-11.0602332,-75.3355445,ESSALUD,0
1364,2464,1449,LOZA DEPORTIVA DE ALIS,-12.2400811,-75.7455998,,0
1365,2466,1433,PLAZA PRINCIPAL DE HUANCAYA,-12.2033835,-75.7992935,,0
1366,2467,1452,PLAZA PRINCIPAL VITIS,-12.2239306,-75.807948,,0
1367,2468,1447,ESTADIO MUNICIPAL BUENOS AIRES DE TANTA,-12.1217817,-76.0137726,,0
1368,2469,1354,LOCAL COMUNAL RESIDENTES DE QUINCHES,-12.6433912,-76.6494672,,0
1369,2470,1356,LOCAL COMUNAL 3 DE MAYO,-12.6180846,-76.6412806,DIRESA LIMA,0
1370,2471,1344,IEP Nº20130 JESUS REY,-12.52614,-76.5452105,DIRESA LIMA,0
1371,2472,1347,IEP Nº20133 FRANCISCO BOLOGNESI DE COAYLLO,-12.727335,-76.4601973,DIRESA LIMA,0
1372,2473,649,COLISEO CERRADDO FRANCISCO MISHANANGO,-5.3056594,-78.8984453,DIRESA,0
1373,2474,1343,PLAZA DE ARMAS CAPILLA DE ASIA,-12.779491,-76.5566134,,0
1374,2475,1343,MULTIUSOS SANTA CRUZ,-12.7578087,-76.6001112,,0
1375,2476,1343,LOSA DEPORTIVA ROSARIO DE ASIA,-12.7806572,-76.5560795,,0
1376,2477,1343,LOCAL COMUNAL 9 DE OCTUBRE,-12.7790916,-76.5568151,,0
1377,2478,1432,PLAZA DE ARMAS HUAMPARA,-12.3601571,-76.1678676,,0
1378,2479,1441,P.S OMAS,-12.5148377,-76.2895238,DIRESA LIMA,0
1379,2480,649,LOCAL DE LA CASA COMUNAL,-5.3429458,-78.7950679,DIRESA,0
1380,2481,649,COLEGIO MISAEL PALACIOS RUIZ,-5.2419794,-78.9471345,DIRESA,0
1381,2482,649,LOCAL COMITE REGANTES SAN ISIDRO,-5.3667476,-78.8592923,DIRESA,0
1382,2483,649,COLEGIO 16882,-5.24636,-78.9698993,DIRESA,0
1383,2484,649,PUESTO DE SALUD SANTA ROSA,-5.3171763,-78.9259197,DIRESA,0
1384,2485,1406,Red Huaura Oyon,-11.1005932,-77.6084142,MINSA,0
1385,2486,1406,Est,-11.1005932,-77.6084142,MINSA,0
1386,2495,1422,IE SANTO DOMINGO DE AYAUCA,-12.5919735,-76.0366524,ESSALUD,0
1387,2496,1430,COLEGIO SANTA MARIA MAGDALENA,-12.6331549,-75.8893399,,0
1388,2497,1426,AUDITORIO MUNICIPAL CARANIA,-12.3446835,-75.8704611,,0
1389,2498,1435,I.E. SAN FRANCISCO DE ASIS,-12.4558405,-75.8119935,DIRESA LIMA,0
1390,2499,1437,COLISEO CERRADO DE LARAOS,-12.346657,-75.7856734,,0
1391,2500,1442,ESTABLECIMIENTO PUTINZA,-12.6676174,-75.911483,DIRESA LIMA,0
1392,2501,1440,PLAZA CENTRAL,-12.2748205,-75.8497641,,0
1393,2502,1366,20424 SAN MIGUEL ARCANGEL,-11.2753449,-76.8192706,DIRESA LIMA,0
1394,2503,1364,20414 LEON OLIMPO GUARDAMINO DE LA CRUZ,-11.2419437,-76.860565,DIRESA LIMA,0
1395,2504,1368,IE 20434 SAN JUAN BAUTISTA,-11.4073137,-76.8194767,DIRESA LIMA,0
1396,2505,1363,I.E. EMMA MENA MELCHOR,-11.1910856,-76.964306,DIRESA LIMA,0
1397,2506,1360,20384 GERMAN CARO RIOS,-11.3487652,-76.7682775,DIRESA LIMA,0
1398,2507,1369,LOCAL COMUNAL 27 DE NOVIEMBRE,-11.190833,-76.781111,DIRESA LIMA,0
1399,2508,1367,PLAZA DE ARMAS DE SANTA CRUZ,-11.1513871,-76.5719414,DIRESA LIMA,0
1400,2509,1359,20382 7 DE ENERO,-11.2342584,-76.6560202,DIRESA LIMA,0
1401,2510,1365,I.E. ALONSO DE MESSIAS,-11.1863289,-76.6481299,DIRESA LIMA,0
1402,2511,1363,LOCAL COMUNAL DEL CP YUNGUY,-11.1910856,-76.964306,DIRESA LIMA,0
1403,2512,1361,COMPLEJO DEPORTIVO DE AUCALLAMA,-11.5644646,-77.1743983,DIRESA LIMA,0
1404,2513,1361,LOZA DEPORTIVO PALPA,-11.488886,-77.1203817,MINSA,0
1405,2514,1490,UNIVERSIDAD NACIONAL DE LA AMAZONIA PERUANA,-7.3439765,-75.0058575,MINSA,0
1406,2515,333,RSG - PLAZA DE ARMAS VIRUNDO - GRAU,-14.2455984,-72.68038329,MINSA,0
1407,2517,325,RSG - CASA MUNICIPAL MAMARA - GRAU,-14.22725518,-72.58350038,MINSA,0
1408,2518,85,Colegio Nacional Pedro Pablo Atusparia,-9.527990587,-77.53506049,,0
1409,2519,210,PUESTO SALUD DE CONOPA,-8.7901131,-77.5168809,,0
1410,2520,1753,I.E. N° 0276 - JESUS MORI LOPEZ,-6.6519,-76.7283,,0
